{
  "people": [
    {
      "id": "antoni-markiewicz-1909",
      "givenName": "Antoni",
      "surname": "Markiewicz",
      "relation": "dziadek",
      "line": "Markiewicz"
    },
    {
      "id": "bronislawa-sikora-1913",
      "givenName": "Bronisława",
      "surname": "Sikora",
      "relation": "babcia",
      "line": "Sikora"
    },
    {
      "id": "marian-maciag-1937",
      "givenName": "Marian",
      "surname": "Maciąg",
      "relation": "dziadek",
      "line": "Maciąg"
    },
    {
      "id": "marianna-rugala-1938",
      "givenName": "Marianna",
      "surname": "Rugała",
      "relation": "babcia",
      "line": "Rugała"
    },
    {
      "id": "jan-markiewicz-1870",
      "givenName": "Jan",
      "surname": "Markiewicz",
      "relation": "pradziadek",
      "line": "Markiewicz"
    },
    {
      "id": "michalina-manthey-1870",
      "givenName": "Michalina",
      "surname": "Manthey",
      "relation": "prababcia",
      "line": "Markiewicz"
    },
    {
      "id": "jan-markiewicz-1823",
      "givenName": "Jan",
      "surname": "Markiewicz",
      "relation": "prapradziadek",
      "line": "Markiewicz"
    },
    {
      "id": "marianna-groszczyk",
      "givenName": "Marianna",
      "surname": "Groszczyk",
      "relation": "praprababcia",
      "line": "Markiewicz"
    },
    {
      "id": "wojciech-markiewicz-1795",
      "givenName": "Wojciech",
      "surname": "Markiewicz",
      "relation": "praprapradziadek",
      "line": "Markiewicz"
    },
    {
      "id": "marianna-manikowska-1800",
      "givenName": "Marianna",
      "surname": "Manikowska",
      "relation": "prapraprababcia",
      "line": "Markiewicz"
    },
    {
      "id": "ewa-jeska-1745",
      "givenName": "Ewa",
      "surname": "Jęska Jeszka",
      "relation": "praprapraprababcia",
      "line": "Markiewicz"
    },
    {
      "id": "franciszek-manikowski-1765",
      "givenName": "Franciszek",
      "surname": "Manikowski",
      "relation": "prapraprapradziadek",
      "line": "Markiewicz"
    },
    {
      "id": "jadwiga-klubcowna-1770",
      "givenName": "Jadwiga",
      "surname": "Klubcowna",
      "relation": "praprapraprababcia",
      "line": "Markiewicz"
    },
    {
      "id": "antoni-mantej-1827",
      "givenName": "Antoni",
      "surname": "Mantej",
      "relation": "prapradziadek",
      "line": "Markiewicz"
    },
    {
      "id": "rosalia-pufal-1828",
      "givenName": "Rosalia",
      "surname": "Pufal",
      "relation": "praprababcia",
      "line": "Markiewicz"
    },
    {
      "id": "piotr-sikora-1865",
      "givenName": "Piotr",
      "surname": "Sikora",
      "relation": "pradziadek",
      "line": "Sikora"
    },
    {
      "id": "michalina-rychlik-1872",
      "givenName": "Michalina",
      "surname": "Rychlik",
      "relation": "prababcia",
      "line": "Sikora"
    },
    {
      "id": "wawrzyn-sikora-1820",
      "givenName": "Wawrzyn",
      "surname": "Sikora",
      "relation": "prapradziadek",
      "line": "Sikora"
    },
    {
      "id": "rozalia-gras-1828",
      "givenName": "Rozalia",
      "surname": "Graś",
      "relation": "praprababcia",
      "line": "Sikora"
    },
    {
      "id": "jakub-rychlik-1824",
      "givenName": "Jakub",
      "surname": "Rychlik",
      "relation": "prapradziadek",
      "line": "Sikora"
    },
    {
      "id": "marianna-michalek-1829",
      "givenName": "Marianna",
      "surname": "Michałek",
      "relation": "praprababcia",
      "line": "Sikora"
    },
    {
      "id": "leon-maciag-1905",
      "givenName": "Leon",
      "surname": "Maciąg",
      "relation": "pradziadek",
      "line": "Maciąg"
    },
    {
      "id": "cecylia-kopec-1906",
      "givenName": "Cecylia",
      "surname": "Kopeć",
      "relation": "prababcia",
      "line": "Maciąg"
    },
    {
      "id": "jan-rugala-1896",
      "givenName": "Jan",
      "surname": "Rugała",
      "relation": "pradziadek",
      "line": "Rugała"
    },
    {
      "id": "marianna-wylazlowska-1897",
      "givenName": "Marianna",
      "surname": "Wylazłowska",
      "relation": "prababcia",
      "line": "Rugała"
    }
  ],
  "events": [
    {
      "id": "birth-antoni-markiewicz-1909",
      "type": "birth",
      "year": 1909,
      "date": "23 II 1909",
      "place": "Krajenka",
      "lat": 53.296667,
      "lon": 16.990556,
      "people": ["antoni-markiewicz-1909"]
    },
    {
      "id": "death-antoni-markiewicz-1993",
      "type": "death",
      "year": 1993,
      "date": "25 V 1993",
      "place": "Brodna",
      "lat": 53.1604,
      "lon": 16.945647,
      "people": ["antoni-markiewicz-1909"]
    },
    {
      "id": "birth-bronislawa-sikora-1913",
      "type": "birth",
      "year": 1913,
      "date": "8 IX 1913",
      "place": "Ludomy",
      "lat": 52.756111,
      "lon": 16.819444,
      "people": ["bronislawa-sikora-1913"]
    },
    {
      "id": "death-bronislawa-sikora-1999",
      "type": "death",
      "year": 1999,
      "date": "23 XI 1999",
      "place": "Kaczory",
      "lat": 53.101944,
      "lon": 16.884167,
      "people": ["bronislawa-sikora-1913"]
    },
    {
      "id": "marriage-antoni-markiewicz-bronislawa-sikora-1936",
      "type": "marriage",
      "year": 1936,
      "date": "18 II 1936",
      "place": "Śmiłowo",
      "lat": 53.136667,
      "lon": 16.9175,
      "people": ["antoni-markiewicz-1909", "bronislawa-sikora-1913"]
    },
    {
      "id": "birth-marian-maciag-1937",
      "type": "birth",
      "year": 1937,
      "date": "1937",
      "place": "Wiązownica",
      "lat": 50.585833,
      "lon": 21.393056,
      "people": ["marian-maciag-1937"]
    },
    {
      "id": "death-marian-maciag-1997",
      "type": "death",
      "year": 1997,
      "date": "24 V 1997",
      "place": "Laskowo",
      "lat": 53.523889,
      "lon": 17.193333,
      "people": ["marian-maciag-1937"]
    },
    {
      "id": "birth-marianna-rugala-1938",
      "type": "birth",
      "year": 1938,
      "date": "1938",
      "place": "Ruda",
      "lat": 50.476111,
      "lon": 21.240556,
      "people": ["marianna-rugala-1938"]
    },
    {
      "id": "marriage-marian-maciag-marianna-rugala-1961",
      "type": "marriage",
      "year": 1961,
      "date": "IV 1961",
      "place": "Debrzno",
      "lat": 53.538333,
      "lon": 17.235278,
      "people": ["marian-maciag-1937", "marianna-rugala-1938"]
    }, 
    {
      "id": "birth-jan-markiewicz-1870",
      "type": "birth",
      "year": 1870,
      "date": "1870",
      "place": "Głomsk",
      "lat": 53.435556,
      "lon": 17.164722,
      "people": ["jan-markiewicz-1870"]
    },
    {
      "id": "death-jan-markiewicz-1956",
      "type": "death",
      "year": 1956,
      "date": "23 X 1956",
      "place": "Mościska",
      "lat": 53.171944,
      "lon": 17.001667,
      "people": ["jan-markiewicz-1870"]
    },
    {
      "id": "birth-michalina-manthey-1870",
      "type": "birth",
      "year": 1870,
      "date": "1870",
      "place": "Stare",
      "lat": 53.219444,
      "lon": 16.998056,
      "people": ["michalina-manthey-1870"]
    },
    {
      "id": "death-michalina-manthey-1941",
      "type": "death",
      "year": 1941,
      "date": "21 XII 1941",
      "place": "Mościska",
      "lat": 53.171944,
      "lon": 17.001667,
      "people": ["michalina-manthey-1870"]
    },
    {
      "id": "marriage-jan-markiewicz-michalina-manthey-1893",
      "type": "marriage",
      "year": 1893,
      "date": "8 I 1893",
      "place": "Głubczyn",
      "lat": 53.243056,
      "lon": 16.959167,
      "people": ["jan-markiewicz-1870", "michalina-manthey-1870"]
    }, 
    {
      "id": "birth-piotr-sikora-1865",
      "type": "birth",
      "year": 1865,
      "date": "1865",
      "place": "Miały",
      "lat": 52.806667,
      "lon": 16.171944,
      "people": ["piotr-sikora-1865"]
    },
    {
      "id": "death-piotr-sikora-1947",
      "type": "death",
      "year": 1947,
      "date": "31 I 1947",
      "place": "Brodna",
      "lat": 53.1604,
      "lon": 16.945647,
      "people": ["piotr-sikora-1865"]
    },
    {
      "id": "birth-michalina-rychlik-1872",
      "type": "birth",
      "year": 1872,
      "date": "1872",
      "place": "Marianowo",
      "lat": 52.7925,
      "lon": 16.109167,
      "people": ["michalina-rychlik-1872"]
    },
    {
      "id": "death-michalina-rychlik-1955",
      "type": "death",
      "year": 1955,
      "place": "Brodna",
      "lat": 53.1604,
      "lon": 16.945647,
      "people": ["michalina-rychlik-1872"]
    },
    {
      "id": "marriage-piotr-sikora-michalina-rychlik-1890",
      "type": "marriage",
      "year": 1890,
      "date": "1890",
      "place": "Piłka",
      "lat": 52.790278,
      "lon": 16.055833,
      "people": ["piotr-sikora-1865", "michalina-rychlik-1872"]
    }, 
    {
      "id": "birth-leon-maciag-1905",
      "type": "birth",
      "year": 1905,
      "date": "1905",
      "place": "Wiązownica",
      "lat": 50.585833,
      "lon": 21.393056,
      "people": ["leon-maciag-1905"]
    },
    {
      "id": "death-leon-maciag-1975",
      "type": "death",
      "year": 1975,
      "date": "9 VI 1975",
      "place": "Człuchów",
      "lat": 53.667222,
      "lon": 17.358889,
      "people": ["leon-maciag-1905"]
    },
    {
      "id": "birth-cecylia-kopec-1906",
      "type": "birth",
      "year": 1906,
      "date": "1906",
      "place": "Wiązownica",
      "lat": 50.585833,
      "lon": 21.393056,
      "people": ["cecylia-kopec-1906"]
    },
    {
      "id": "death-cecylia-kopec-1984",
      "type": "death",
      "year": 1984,
      "date": "13 VII 1984",
      "place": "Człuchów",
      "lat": 53.595278,
      "lon": 17.336944,
      "people": ["cecylia-kopec-1906"]
    },
    {
      "id": "marriage-leon-maciag-cecylia-kopec-1927",
      "type": "marriage",
      "year": 1927,
      "date": "19 VII 1927",
      "place": "Wiązownica",
      "lat": 50.585833,
      "lon": 21.393056,
      "people": ["leon-maciag-1905", "cecylia-kopec-1906"]
    }, 
    {
      "id": "birth-jan-rugala-1896",
      "type": "birth",
      "year": 1896,
      "date": "1896",
      "place": "Ruda",
      "lat": 50.476111,
      "lon": 21.240556,
      "people": ["jan-rugala-1896"]
    },
    {
      "id": "death-jan-rugala-1974",
      "type": "death",
      "year": 1974,
      "date": "2 III 1974",
      "place": "Laskowo",
      "lat": 53.523889,
      "lon": 17.193333,
      "people": ["jan-rugala-1896"]
    },
    {
      "id": "birth-marianna-wylazlowska-1897",
      "type": "birth",
      "year": 1897,
      "date": "1897",
      "place": "Morawica",
      "lat": 50.745,
      "lon": 20.620278,
      "people": ["marianna-wylazlowska-1897"]
    },
    {
      "id": "death-marianna-wylazkowska-1979",
      "type": "death",
      "year": 1979,
      "date": "25 XII 1979",
      "place": "Laskowo",
      "lat": 53.523889,
      "lon": 17.193333,
      "people": ["marianna-wylazlowska-1897"]
    },
    {
      "id": "marriage-jan-rugala-marianna-wylazlowska-1927",
      "type": "marriage",
      "year": 1920,
      "date": "około 1920",
      "place": "Schermcke",
      "lat": 52.066667,
      "lon": 11.283333,
      "people": ["jan-rugala-1896", "marianna-wylazlowska-1897"]
    },
    {
      "id": "birth-jan-markiewicz-1823",
      "type": "birth",
      "year": 1823,
      "date": "8 I 1823",
      "place": "Głomsk",
      "lat": 53.435556,
      "lon": 17.164722,
      "people": ["jan-markiewicz-1823"]
    },
    {
      "id": "death-jan-markiewicz-1901",
      "type": "death",
      "year": 1901,
      "date": "20 I 1901",
      "place": "Śmiardowo Krajeńskie",
      "lat": 53.247222,
      "lon": 17.017222,
      "people": ["jan-markiewicz-1823"]
    },
    {
      "id": "death-marianna-groszczyk-1893",
      "type": "death",
      "year": 1893,
      "date": "2 VIII 1893",
      "place": "Śmiardowo Krajeńskie",
      "lat": 53.247222,
      "lon": 17.017222,
      "people": ["marianna-groszczyk"]
    },
    {
      "id": "marriage-jan-markiewicz-marianna-groszczyk-1869",
      "type": "marriage",
      "year": 1869,
      "date": "31 V 1869",
      "place": "Krajenka",
      "lat": 53.296667,
      "lon": 16.990556,
      "people": ["jan-markiewicz-1823", "marianna-groszczyk"]
    }, 
    {
      "id": "birth-antoni-mantej-1827",
      "type": "birth",
      "year": 1827,
      "date": "8 VII 1827",
      "place": "Głubczyn",
      "lat": 53.243056,
      "lon": 16.959167,
      "people": ["antoni-mantej-1827"]
    },
    {
      "id": "death-antoni-mantej-1889",
      "type": "death",
      "year": 1889,
      "date": "28 X 1889",
      "place": "Śmiardowo Krajeńskie",
      "lat": 53.247222,
      "lon": 17.017222,
      "people": ["antoni-mantej-1827"]
    },
    {
      "id": "death-rosalia-pufal-1889",
      "type": "death",
      "year": 1889,
      "date": "7 III 1889",
      "place": "Głubczyn",
      "lat": 53.243056,
      "lon": 16.959167,
      "people": ["rosalia-pufal-1828"]
    },
    {
      "id": "marriage-antoni-mantej-rosalia-pufal-1859",
      "type": "marriage",
      "year": 1859,
      "date": "28 II 1859",
      "place": "Głubczyn",
      "lat": 53.243056,
      "lon": 16.959167,
      "people": ["antoni-mantej-1827", "rosalia-pufal-1828"]
    },
    {
      "id": "birth-wawrzyn-sikora-1820",
      "type": "birth",
      "year": 1820,
      "date": "1820",
      "place": "Pęckowo",
      "lat": 52.836667,
      "lon": 16.087222,
      "people": ["wawrzyn-sikora-1820"]
    },
    {
      "id": "death-wawrzyn-sikora-1900",
      "type": "death",
      "year": 1900,
      "date": "28 II 1900",
      "place": "Miały",
      "lat": 52.806667,
      "lon": 16.171944,
      "people": ["wawrzyn-sikora-1820"]
    },
    {
      "id": "birth-rozalia-gras-1828",
      "type": "birth",
      "year": 1828,
      "date": "2 V 1828",
      "place": "Miały",
      "lat": 52.806667,
      "lon": 16.171944,
      "people": ["rozalia-gras-1828"]
    },
    {
      "id": "death-rozalia-gras-1901",
      "type": "death",
      "year": 1901,
      "date": "8 XI 1901",
      "place": "Kamionka",
      "lat": 52.8225,
      "lon": 16.574444,
      "people": ["rozalia-gras-1828"]
    },
    {
      "id": "marriage-wawrzyn-sikora-rozalia-gras-1846",
      "type": "marriage",
      "year": 1846,
      "date": "15 II 1846",
      "place": "Piłka",
      "lat": 52.790278,
      "lon": 16.055833,
      "people": ["wawrzyn-sikora-1820", "rozalia-gras-1828"]
    },
    {
      "id": "birth-jakub-rychlik-1824",
      "type": "birth",
      "year": 1824,
      "date": "1824",
      "place": "Marianowo",
      "lat": 52.7925,
      "lon": 16.109167,
      "people": ["jakub-rychlik-1824"]
    },
    {
      "id": "birth-marianna-michalek-1829",
      "type": "birth",
      "year": 1829,
      "date": "18 I 1829",
      "place": "Pęckowo",
      "lat": 52.836667,
      "lon": 16.087222,
      "people": ["marianna-michalek-1829"]
    },
    {
      "id": "marriage-jakub-rychlik-marianna-michalek-1852",
      "type": "marriage",
      "year": 1852,
      "date": "19 IV 1846",
      "place": "Piłka",
      "lat": 52.790278,
      "lon": 16.055833,
      "people": ["jakub-rychlik-1824", "marianna-michalek-1829"]
    },
    {
      "id": "marriage-wojciech-markiewicz-marianna-manikowska-1818",
      "type": "marriage",
      "year": 1818,
      "date": "26 I 1818",
      "place": "Zakrzewo",
      "lat": 53.410556,
      "lon": 17.1525,
      "people": ["wojciech-markiewicz-1795", "marianna-manikowska-1800"]
    },
    {
      "id": "birth-marianna-manikowska-1800",
      "type": "birth",
      "year": 1800,
      "date": "7 III 1800",
      "place": "Głomsk",
      "lat": 53.435556,
      "lon": 17.164722,
      "people": ["marianna-manikowska-1800"]
    },
    {
      "id": "death-ewa-jeska-1745",
      "type": "death",
      "year": 1833,
      "date": "17 XII 1833",
      "place": "Głomsk",
      "lat": 53.435556,
      "lon": 17.164722,
      "people": ["ewa-jeska-1745"]
    },
    {
      "id": "death-franciszek-manikowski-1844",
      "type": "death",
      "year": 1844,
      "date": "26 II 1844",
      "place": "Głomsk",
      "lat": 53.435556,
      "lon": 17.164722,
      "people": ["franciszek-manikowski-1765"]
    },
    {
      "id": "death-jadwiga-klubcowna-1830",
      "type": "death",
      "year": 1830,
      "date": "8 II 1830",
      "place": "Głomsk",
      "lat": 53.435556,
      "lon": 17.164722,
      "people": ["jadwiga-klubcowna-1770"]
    }
  ]
}
