{
  "people": [
    {
      "id": "antoni-markiewicz-1909",
      "givenName": "Antoni",
      "surname": "Markiewicz",
      "relation": "dziadek",
      "line": "Markiewicz"
    },
    {
      "id": "bronislawa-sikora-1913",
      "givenName": "Bronisława",
      "surname": "Sikora",
      "relation": "babcia",
      "line": "Sikora"
    },
    {
      "id": "eugeniusz-markiewicz-1957",
      "givenName": "Eugeniusz",
      "surname": "Markiewicz",
      "relation": "ojciec",
      "line": "Markiewicz"
    },
    {
      "id": "marian-maciag-1937",
      "givenName": "Marian",
      "surname": "Maciąg",
      "relation": "dziadek",
      "line": "Maciąg"
    },
    {
      "id": "marianna-rugala-1938",
      "givenName": "Marianna",
      "surname": "Rugała",
      "relation": "babcia",
      "line": "Rugała"
    },
    {
      "id": "jan-markiewicz-1870",
      "givenName": "Jan",
      "surname": "Markiewicz",
      "relation": "pradziadek",
      "line": "Markiewicz"
    },
    {
      "id": "michalina-manthey-1870",
      "givenName": "Michalina",
      "surname": "Manthey",
      "relation": "prababcia",
      "line": "Markiewicz"
    },
    {
      "id": "jan-markiewicz-1823",
      "givenName": "Jan",
      "surname": "Markiewicz",
      "relation": "prapradziadek",
      "line": "Markiewicz"
    },
    {
      "id": "marianna-yk",
      "givenName": "Marianna",
      "surname": "yk",
      "relation": "praprababcia",
      "line": "Markiewicz"
    },
    {
      "id": "pawel-groszczyk-1799",
      "givenName": "Paweł",
      "surname": "Groszczyk",
      "relation": "praprapradziadek",
      "line": "Markiewicz"
    },
    {
      "id": "marianna-streichan-1814",
      "givenName": "Marianna",
      "surname": "Streichan",
      "relation": "prapraprababcia",
      "line": "Markiewicz"
    },
    {
      "id": "wojciech-markiewicz-1795",
      "givenName": "Wojciech",
      "surname": "Markiewicz",
      "relation": "praprapradziadek",
      "line": "Markiewicz"
    },
    {
      "id": "marianna-manikowska-1800",
      "givenName": "Marianna",
      "surname": "Manikowska",
      "relation": "prapraprababcia",
      "line": "Markiewicz"
    },
    {
      "id": "ewa-jeska-1745",
      "givenName": "Ewa",
      "surname": "Jęska Jeszka",
      "relation": "praprapraprababcia",
      "line": "Markiewicz"
    },
    {
      "id": "franciszek-manikowski-1765",
      "givenName": "Franciszek",
      "surname": "Manikowski",
      "relation": "prapraprapradziadek",
      "line": "Markiewicz"
    },
    {
      "id": "jadwiga-klubcowna-1770",
      "givenName": "Jadwiga",
      "surname": "Klubcowna",
      "relation": "praprapraprababcia",
      "line": "Markiewicz"
    },
    {
      "id": "karol-streichan-1781",
      "givenName": "Karol",
      "surname": "Streichan",
      "relation": "prapraprapradziadek",
      "line": "Markiewicz"
    },
    {
      "id": "marianna-mruk-1788",
      "givenName": "Marianna",
      "surname": "Mruk",
      "relation": "praprapraprababcia",
      "line": "Markiewicz"
    },
    {
      "id": "antoni-mantej-1827",
      "givenName": "Antoni",
      "surname": "Mantej",
      "relation": "prapradziadek",
      "line": "Markiewicz"
    },
    {
      "id": "rosalia-pufal-1828",
      "givenName": "Rosalia",
      "surname": "Pufal",
      "relation": "praprababcia",
      "line": "Markiewicz"
    },
    {
      "id": "jakub-mantej-1794",
      "givenName": "Jakub",
      "surname": "Mantej",
      "relation": "praprapradziadek",
      "line": "Markiewicz"
    }, 
    {
      "id": "rozalia-metzke-1797",
      "givenName": "Rozalia",
      "surname": "Metzke",
      "relation": "prapraprababcia",
      "line": "Markiewicz"
    }, 
    {
      "id": "maciej-puwal-1801",
      "givenName": "Maciej",
      "surname": "Puwal",
      "relation": "praprapradziadek",
      "line": "Markiewicz"
    },  
    {
      "id": "dorota-schwochert-1800",
      "givenName": "Dorota",
      "surname": "Schwochert",
      "relation": "prapraprababcia",
      "line": "Markiewicz"
    },
    {
      "id": "pawel-puwal-1755",
      "givenName": "Paweł",
      "surname": "Puwal",
      "relation": "prapraprapradziadek",
      "line": "Markiewicz"
    },
    {
      "id": "marianna-baczewska-1761",
      "givenName": "Marianna",
      "surname": "Baczewska",
      "relation": "praprapraprababcia",
      "line": "Markiewicz"
    },  
    {
      "id": "wawrzyniec-puwal-1722",
      "givenName": "Wawrzyniec",
      "surname": "Puwal",
      "relation": "praprapraprapradziadek",
      "line": "Markiewicz"
    },
    {
      "id": "anna-grzegorzewska-1734",
      "givenName": "Anna",
      "surname": "Grzegorzewska",
      "relation": "prapraprapraprababcia",
      "line": "Markiewicz"
    },
    {
      "id": "kacper-schwochert-bd",
      "givenName": "Kacper",
      "surname": "Schwochert",
      "relation": "prapraprapradziadek",
      "line": "Markiewicz"
    },
    {
      "id": "magdalena-zuromska-1760",
      "givenName": "Kacper",
      "surname": "Schwochert",
      "relation": "praprapraprababcia",
      "line": "Markiewicz"
    },
    {
      "id": "piotr-sikora-1865",
      "givenName": "Piotr",
      "surname": "Sikora",
      "relation": "pradziadek",
      "line": "Sikora"
    },
    {
      "id": "michalina-rychlik-1872",
      "givenName": "Michalina",
      "surname": "Rychlik",
      "relation": "prababcia",
      "line": "Sikora"
    },
    {
      "id": "wawrzyn-sikora-1820",
      "givenName": "Wawrzyn",
      "surname": "Sikora",
      "relation": "prapradziadek",
      "line": "Sikora"
    },
    {
      "id": "rozalia-gras-1828",
      "givenName": "Rozalia",
      "surname": "Graś",
      "relation": "praprababcia",
      "line": "Sikora"
    },
    {
      "id": "jozef-sikora-1774",
      "givenName": "Józef",
      "surname": "Sikora",
      "relation": "praprapradziadek",
      "line": "Sikora"
    },
    {
      "id": "anna-radke-1787",
      "givenName": "Anna Krystyna",
      "surname": "Radke",
      "relation": "prapraprababcia",
      "line": "Sikora"
    },
    {
      "id": "regina-helak-bd",
      "givenName": "Regina",
      "surname": "Helak",
      "relation": "praprapraprababcia",
      "line": "Sikora"
    },
    {
      "id": "chryzostom-gras-1785",
      "givenName": "Chryzostom",
      "surname": "Graś",
      "relation": "praprapradziadek",
      "line": "Sikora"
    },
    {
      "id": "malgorzata-drab-1788",
      "givenName": "Małgorzata",
      "surname": "Drab",
      "relation": "prapraprababcia",
      "line": "Sikora"
    }, 
    {
      "id": "wojciech-gras-1740",
      "givenName": "Wojciech",
      "surname": "Graś",
      "relation": "prapraprapradziadek",
      "line": "Sikora"
    },
    {
      "id": "malgorzata-bloch-1750",
      "givenName": "Małgorzata",
      "surname": "Błoch",
      "relation": "praprapraprababcia",
      "line": "Sikora"
    },
    {
      "id": "walenty-drab-1759",
      "givenName": "Walenty",
      "surname": "Drab",
      "relation": "prapraprapradziadek",
      "line": "Sikora"
    },
    {
      "id": "marianna-steinborn-1763",
      "givenName": "Marianna",
      "surname": "Steinborn",
      "relation": "praprapraprababcia",
      "line": "Sikora"
    },
    {
      "id": "wojciech-steinborn-1719",
      "givenName": "Wojciech",
      "surname": "Steinborn",
      "relation": "praprapraprapradziadek",
      "line": "Sikora"
    },
    {
      "id": "anna-sztuba-1722",
      "givenName": "Anna",
      "surname": "Sztuba",
      "relation": "prapraprapraprababcia",
      "line": "Sikora"
    },
    {
      "id": "wojciech-steinborn-1662",
      "givenName": "Wojciech",
      "surname": "Steinborn",
      "relation": "prapraprapraprapradziadek",
      "line": "Sikora"
    },  
    {
      "id": "anna-hintz-bd",
      "givenName": "Anna",
      "surname": "Hintz",
      "relation": "praprapraprapraprababcia",
      "line": "Sikora"
    },  
    {
      "id": "pawel-steinborn-bd",
      "givenName": "Paweł",
      "surname": "Steinborn",
      "relation": "praprapraprapraprapradziadek",
      "line": "Sikora"
    },  
    {
      "id": "ewa-steinbornowa-bd",
      "givenName": "Ewa",
      "surname": "Steinborn",
      "relation": "prapraprapraprapraprababcia",
      "line": "Sikora"
    },
    {
      "id": "jan-sztuba-1695",
      "givenName": "Jan",
      "surname": "Sztuba",
      "relation": "prapraprapraprapradziadek",
      "line": "Sikora"
    },
    {
      "id": "marianna-czekala-1694",
      "givenName": "Marianna",
      "surname": "Czekała",
      "relation": "praprapraprapraprababcia",
      "line": "Sikora"
    },
    {
      "id": "pawel-sztuba-1661",
      "givenName": "Paweł",
      "surname": "Sztuba",
      "relation": "praprapraprapraprapradziadek",
      "line": "Sikora"
    },
    {
      "id": "wojciech-stypa-1629",
      "givenName": "Wojciech",
      "surname": "Stypa vel Sztuba",
      "relation": "prapraprapraprapraprapradziadek",
      "line": "Sikora"
    },
    {
      "id": "dorota-mach-1634",
      "givenName": "Dorota",
      "surname": "Mach",
      "relation": "praprapraprapraprapraprababcia",
      "line": "Sikora"
    },
    {
      "id": "grzegorz-stypa-bd",
      "givenName": "Grzegorz",
      "surname": "Stypa",
      "relation": "praprapraprapraprapraprapradziadek",
      "line": "Sikora"
    },
    {
      "id": "regina-wydrzyczka-bd",
      "givenName": "Regina",
      "surname": "Wydrzyczka",
      "relation": "prapraprapraprapraprapraprababcia",
      "line": "Sikora"
    },
    {
      "id": "michal-czekala-1650",
      "givenName": "Michał",
      "surname": "Czekała",
      "relation": "praprapraprapraprapradziadek",
      "line": "Sikora"
    },
    {
      "id": "agnieszka-kaczmarzowna-1650",
      "givenName": "Agnieszka",
      "surname": "Kaczmarzówna",
      "relation": "praprapraprapraprababcia",
      "line": "Sikora"
    },
    {
      "id": "andrzej-czekala-1624",
      "givenName": "Andrzej",
      "surname": "Czekała",
      "relation": "prapraprapraprapraprapradziadek",
      "line": "Sikora"
    },
    {
      "id": "jadwiga-pawelkowna-1625",
      "givenName": "Jadwiga",
      "surname": "Pawełkówna",
      "relation": "praprapraprapraprapraprababcia",
      "line": "Sikora"
    },
    {
      "id": "jan-czekala-bd",
      "givenName": "Jan",
      "surname": "Czekała",
      "relation": "praprapraprapraprapraprapradziadek",
      "line": "Sikora"
    },
    {
      "id": "ewa-zak-1600",
      "givenName": "Ewa",
      "surname": "Żak",
      "relation": "prapraprapraprapraprapraprababcia",
      "line": "Sikora"
    },
    {
      "id": "jakub-rychlik-1824",
      "givenName": "Jakub",
      "surname": "Rychlik",
      "relation": "prapradziadek",
      "line": "Sikora"
    },
    {
      "id": "marianna-michalek-1829",
      "givenName": "Marianna",
      "surname": "Michałek",
      "relation": "praprababcia",
      "line": "Sikora"
    },
    {
      "id": "helena-jarys-1792",
      "givenName": "Helena",
      "surname": "Jaryś",
      "relation": "prapraprababcia",
      "line": "Sikora"
    },
    {
      "id": "jan-michalek-bd",
      "givenName": "Jan",
      "surname": "Michałek",
      "relation": "praprapradziadek",
      "line": "Sikora"
    },
    {
      "id": "katarzyna-wocko-bd",
      "givenName": "Katarzyna",
      "surname": "Woćko",
      "relation": "prapraprababcia",
      "line": "Sikora"
    },
    {
      "id": "leon-maciag-1905",
      "givenName": "Leon",
      "surname": "Maciąg",
      "relation": "pradziadek",
      "line": "Maciąg"
    },
    {
      "id": "franciszek-maciag-1870",
      "givenName": "Franciszek Ksawery",
      "surname": "Maciąg",
      "relation": "prapradziadek",
      "line": "Maciąg"
    },
    {
      "id": "katarzyna-pisarska-1863",
      "givenName": "Katarzyna",
      "surname": "Pisarska",
      "relation": "praprababcia",
      "line": "Maciąg"
    },
    {
      "id": "walenty-maciag-1837",
      "givenName": "Walenty",
      "surname": "Maciąg",
      "relation": "praprapradziadek",
      "line": "Maciąg"
    },
    {
      "id": "julianna-stasiak-1844",
      "givenName": "Julianna",
      "surname": "Stasiak",
      "relation": "prapraprababcia",
      "line": "Maciąg"
    },
    {
      "id": "wojciech-maciag-1756",
      "givenName": "Wojciech",
      "surname": "Maciąg",
      "relation": "praprapraprapradziadek",
      "line": "Maciąg"
    },
    {
      "id": "kunegunda-chochoł-1763",
      "givenName": "Kunegunda",
      "surname": "Chochoł",
      "relation": "prapraprapraprababcia",
      "line": "Maciąg"
    },
    {
      "id": "sebastian-chochoł-bd",
      "givenName": "Sebastian",
      "surname": "Chochoł",
      "relation": "prapraprapraprapradziadek",
      "line": "Maciąg"
    },
    {
      "id": "jan-stasiak-1809",
      "givenName": "Jan",
      "surname": "Stasiak",
      "relation": "prapraprapradziadek",
      "line": "Maciąg"
    },
    {
      "id": "katarzyna-dygula-1809",
      "givenName": "Katarzyna",
      "surname": "Dyguła",
      "relation": "praprapraprababcia",
      "line": "Maciąg"
    },
    {
      "id": "antoni-dygula-1758",
      "givenName": "Antoni",
      "surname": "Dyguła",
      "relation": "praprapraprapradziadek",
      "line": "Maciąg"
    },
    {
      "id": "magdalena-gawlak-1782",
      "givenName": "Magdalena",
      "surname": "Gawlak",
      "relation": "prapraprapraprababcia",
      "line": "Maciąg"
    },
    {
      "id": "jan-pisarski-1812",
      "givenName": "Jan",
      "surname": "Pisarski",
      "relation": "praprapradziadek",
      "line": "Maciąg"
    },
    {
      "id": "katarzyna-krepa-1832",
      "givenName": "Katarzyna",
      "surname": "Krępa",
      "relation": "prapraprababcia",
      "line": "Maciąg"
    },
    {
      "id": "maciej-pisarski-1785",
      "givenName": "Maciej",
      "surname": "Pisarski",
      "relation": "prapraprapradziadek",
      "line": "Maciąg"
    },
    {
      "id": "anna-kamieńska-1780",
      "givenName": "Anna",
      "surname": "Kamieńska",
      "relation": "praprapraprababcia",
      "line": "Maciąg"
    },
    {
      "id": "jan-krepa-1791",
      "givenName": "Jan",
      "surname": "Krępa",
      "relation": "prapraprapradziadek",
      "line": "Maciąg"
    },
    {
      "id": "teresa-kedziorska-1812",
      "givenName": "Teresa",
      "surname": "Kędziorska",
      "relation": "praprapraprababcia",
      "line": "Maciąg"
    },
    {
      "id": "szymon-kedziorski-1782",
      "givenName": "Szymon",
      "surname": "Kędziorski",
      "relation": "praprapraprapradziadek",
      "line": "Maciąg"
    },
    {
      "id": "malgorzata-kos-1784",
      "givenName": "Małgorzata",
      "surname": "Kos",
      "relation": "prapraprapraprababcia",
      "line": "Maciąg"
    },
    {
      "id": "teresa-kedziorska-bd",
      "givenName": "Teresa",
      "surname": "Kędziorska",
      "relation": "praprapraprapraprababcia",
      "line": "Maciąg"
    },
    {
      "id": "bartlomiej-kos-1755",
      "givenName": "Bartłomiej",
      "surname": "Kos",
      "relation": "prapraprapraprapradziadek",
      "line": "Maciąg"
    },
    {
      "id": "cecylia-kopec-1906",
      "givenName": "Cecylia",
      "surname": "Kopeć",
      "relation": "prababcia",
      "line": "Maciąg"
    },
    {
      "id": "julian-kopciowski-1872",
      "givenName": "Julian Szczepan",
      "surname": "Kopciowski",
      "relation": "prapradziadek",
      "line": "Maciąg"
    },
    {
      "id": "marianna-kwiecien-1869",
      "givenName": "Marianna",
      "surname": "Kwiecień",
      "relation": "praprababcia",
      "line": "Maciąg"
    },
    {
      "id": "andrzej-kopciowski-1851",
      "givenName": "Andrzej",
      "surname": "Kopciowski",
      "relation": "praprapradziadek",
      "line": "Maciąg"
    },
    {
      "id": "julianna-salwicka-1837",
      "givenName": "Julianna",
      "surname": "Sałwicka",
      "relation": "prapraprababcia",
      "line": "Maciąg"
    },
    {
      "id": "piotr-kopciowski-1824",
      "givenName": "Piotr Paweł",
      "surname": "Kopciowski",
      "relation": "prapraprapradziadek",
      "line": "Maciąg"
    },
    {
      "id": "rozalia-lipiec-1829",
      "givenName": "Rozalia",
      "surname": "Lipiec",
      "relation": "praprapraprababcia",
      "line": "Maciąg"
    },
    {
      "id": "wojciech-kopciowski-1792",
      "givenName": "Wojciech",
      "surname": "Kopciowski",
      "relation": "praprapraprapradziadek",
      "line": "Maciąg"
    },
    {
      "id": "julianna-kotlarska-1801",
      "givenName": "Julianna",
      "surname": "Kotlarska",
      "relation": "prapraprapraprababcia",
      "line": "Maciąg"
    },
    {
      "id": "mikolaj-kopciowski-1770",
      "givenName": "Mikołaj",
      "surname": "Kopciowski",
      "relation": "prapraprapraprapradziadek",
      "line": "Maciąg"
    },
    {
      "id": "franciszka-wegrzynowska-1770",
      "givenName": "Franciszka",
      "surname": "Węgrzynowska",
      "relation": "praprapraprapraprababcia",
      "line": "Maciąg"
    },
    {
      "id": "jan-wegrzynowski-1754",
      "givenName": "Jan",
      "surname": "Węgrzynowski",
      "relation": "praprapraprapraprapradziadek",
      "line": "Maciąg"
    },
    {
      "id": "agnieszka-wegrzynowska-1754",
      "givenName": "Franciszka",
      "surname": "Węgrzynowska",
      "relation": "prapraprapraprapraprababcia",
      "line": "Maciąg"
    },
    {
      "id": "piotr-kotlarski-1757",
      "givenName": "Julianna",
      "surname": "Kotlarski",
      "relation": "prapraprapraprapradziadek",
      "line": "Maciąg"
    },
    {
      "id": "marianna-kedziorska-1760",
      "givenName": "Marianna",
      "surname": "Kędziorska",
      "relation": "praprapraprapraprababcia",
      "line": "Maciąg"
    },
    {
      "id": "walenty-lipiec-1800",
      "givenName": "Walenty",
      "surname": "Lipiec",
      "relation": "praprapraprapradziadek",
      "line": "Maciąg"
    },
    {
      "id": "marianna-szczepanowska-1800",
      "givenName": "Marianna",
      "surname": "Szczepanowska",
      "relation": "prapraprapraprababcia",
      "line": "Maciąg"
    },
    {
      "id": "sebastian-szczepanowski-bd",
      "givenName": "Sebastian",
      "surname": "Szczepanowski",
      "relation": "prapraprapraprapradziadek",
      "line": "Maciąg"
    },
    {
      "id": "salomea-szczepanowska-1774",
      "givenName": "Salomea",
      "surname": "Szczepanowska",
      "relation": "praprapraprapraprababcia",
      "line": "Maciąg"
    },
    {
      "id": "jan-salwicki-1800",
      "givenName": "Jan",
      "surname": "Sałwicki",
      "relation": "prapraprapradziadek",
      "line": "Maciąg"
    },
    {
      "id": "jozefa-bilska-1816",
      "givenName": "Józefa",
      "surname": "Bilska",
      "relation": "praprapraprababcia",
      "line": "Maciąg"
    },
    {
      "id": "marianna-salwicka-1765",
      "givenName": "Marianna",
      "surname": "Sałwicka",
      "relation": "prapraprapraprababcia",
      "line": "Maciąg"
    },
    {
      "id": "wincenty-kwiecien-1840",
      "givenName": "Wincenty",
      "surname": "Kwiecień",
      "relation": "praprapradziadek",
      "line": "Maciąg"
    },
    {
      "id": "katarzyna-jonca-1849",
      "givenName": "Katarzyna",
      "surname": "Jońca",
      "relation": "prapraprababcia",
      "line": "Maciąg"
    },
    {
      "id": "jacenty-kwiecien-1805",
      "givenName": "Jacenty",
      "surname": "Kwiecień",
      "relation": "prapraprapradziadek",
      "line": "Maciąg"
    },
    {
      "id": "agata-stawiarz-1806",
      "givenName": "Agata",
      "surname": "Stawiarz",
      "relation": "praprapraprababcia",
      "line": "Maciąg"
    },
    {
      "id": "jan-rugala-1896",
      "givenName": "Jan",
      "surname": "Rugała",
      "relation": "pradziadek",
      "line": "Rugała"
    },
    {
      "id": "marianna-wylazlowska-1897",
      "givenName": "Marianna",
      "surname": "Wylazłowska",
      "relation": "prababcia",
      "line": "Rugała"
    }
  ],
  "events": [
    {
      "id": "birth-antoni-markiewicz-1909",
      "type": "birth",
      "year": 1909,
      "date": "23 II 1909",
      "place": "Krajenka",
      "lat": 53.296667,
      "lon": 16.990556,
      "people": ["antoni-markiewicz-1909"]
    },
    {
      "id": "death-antoni-markiewicz-1993",
      "type": "death",
      "year": 1993,
      "date": "25 V 1993",
      "place": "Brodna",
      "lat": 53.1604,
      "lon": 16.945647,
      "people": ["antoni-markiewicz-1909"]
    },
    {
      "id": "birth-bronislawa-sikora-1913",
      "type": "birth",
      "year": 1913,
      "date": "8 IX 1913",
      "place": "Ludomy",
      "lat": 52.756111,
      "lon": 16.819444,
      "people": ["bronislawa-sikora-1913"]
    },
    {
      "id": "death-bronislawa-sikora-1999",
      "type": "death",
      "year": 1999,
      "date": "23 XI 1999",
      "place": "Kaczory",
      "lat": 53.101944,
      "lon": 16.884167,
      "people": ["bronislawa-sikora-1913"]
    },
    {
      "id": "marriage-antoni-markiewicz-bronislawa-sikora-1936",
      "type": "marriage",
      "year": 1936,
      "date": "18 II 1936",
      "place": "Śmiłowo",
      "lat": 53.136667,
      "lon": 16.9175,
      "people": ["antoni-markiewicz-1909", "bronislawa-sikora-1913"]
    },
    {
      "id": "birth-marian-maciag-1937",
      "type": "birth",
      "year": 1937,
      "date": "1937",
      "place": "Wiązownica",
      "lat": 50.585833,
      "lon": 21.393056,
      "people": ["marian-maciag-1937"]
    },
    {
      "id": "death-marian-maciag-1997",
      "type": "death",
      "year": 1997,
      "date": "24 V 1997",
      "place": "Laskowo",
      "lat": 53.523889,
      "lon": 17.193333,
      "people": ["marian-maciag-1937"]
    },
    {
      "id": "birth-marianna-rugala-1938",
      "type": "birth",
      "year": 1938,
      "date": "1938",
      "place": "Ruda",
      "lat": 50.476111,
      "lon": 21.240556,
      "people": ["marianna-rugala-1938"]
    },
    {
      "id": "marriage-marian-maciag-marianna-rugala-1961",
      "type": "marriage",
      "year": 1961,
      "date": "IV 1961",
      "place": "Debrzno",
      "lat": 53.538333,
      "lon": 17.235278,
      "people": ["marian-maciag-1937", "marianna-rugala-1938"]
    }, 
    {
      "id": "birth-jan-markiewicz-1870",
      "type": "birth",
      "year": 1870,
      "date": "1870",
      "place": "Głomsk",
      "lat": 53.435556,
      "lon": 17.164722,
      "people": ["jan-markiewicz-1870"]
    },
    {
      "id": "death-jan-markiewicz-1956",
      "type": "death",
      "year": 1956,
      "date": "23 X 1956",
      "place": "Mościska",
      "lat": 53.171944,
      "lon": 17.001667,
      "people": ["jan-markiewicz-1870"]
    },
    {
      "id": "birth-michalina-manthey-1870",
      "type": "birth",
      "year": 1870,
      "date": "1870",
      "place": "Stare",
      "lat": 53.219444,
      "lon": 16.998056,
      "people": ["michalina-manthey-1870"]
    },
    {
      "id": "death-michalina-manthey-1941",
      "type": "death",
      "year": 1941,
      "date": "21 XII 1941",
      "place": "Mościska",
      "lat": 53.171944,
      "lon": 17.001667,
      "people": ["michalina-manthey-1870"]
    },
    {
      "id": "marriage-jan-markiewicz-michalina-manthey-1893",
      "type": "marriage",
      "year": 1893,
      "date": "8 I 1893",
      "place": "Głubczyn",
      "lat": 53.243056,
      "lon": 16.959167,
      "people": ["jan-markiewicz-1870", "michalina-manthey-1870"]
    }, 
    {
      "id": "birth-piotr-sikora-1865",
      "type": "birth",
      "year": 1865,
      "date": "1865",
      "place": "Miały",
      "lat": 52.806667,
      "lon": 16.171944,
      "people": ["piotr-sikora-1865"]
    },
    {
      "id": "death-piotr-sikora-1947",
      "type": "death",
      "year": 1947,
      "date": "31 I 1947",
      "place": "Brodna",
      "lat": 53.1604,
      "lon": 16.945647,
      "people": ["piotr-sikora-1865"]
    },
    {
      "id": "birth-michalina-rychlik-1872",
      "type": "birth",
      "year": 1872,
      "date": "1872",
      "place": "Marianowo (obecnie Marylin)",
      "lat": 52.7925,
      "lon": 16.109167,
      "people": ["michalina-rychlik-1872"]
    },
    {
      "id": "death-michalina-rychlik-1955",
      "type": "death",
      "year": 1955,
      "place": "Brodna",
      "lat": 53.1604,
      "lon": 16.945647,
      "people": ["michalina-rychlik-1872"]
    },
    {
      "id": "marriage-piotr-sikora-michalina-rychlik-1890",
      "type": "marriage",
      "year": 1890,
      "date": "1890",
      "place": "Piłka",
      "lat": 52.790278,
      "lon": 16.055833,
      "people": ["piotr-sikora-1865", "michalina-rychlik-1872"]
    }, 
    {
      "id": "birth-leon-maciag-1905",
      "type": "birth",
      "year": 1905,
      "date": "1905",
      "place": "Wiązownica",
      "lat": 50.585833,
      "lon": 21.393056,
      "people": ["leon-maciag-1905"]
    },
    {
      "id": "death-leon-maciag-1975",
      "type": "death",
      "year": 1975,
      "date": "9 VI 1975",
      "place": "Człuchów",
      "lat": 53.667222,
      "lon": 17.358889,
      "people": ["leon-maciag-1905"]
    },
    {
      "id": "birth-cecylia-kopec-1906",
      "type": "birth",
      "year": 1906,
      "date": "1906",
      "place": "Wiązownica",
      "lat": 50.585833,
      "lon": 21.393056,
      "people": ["cecylia-kopec-1906"]
    },
    {
      "id": "death-cecylia-kopec-1984",
      "type": "death",
      "year": 1984,
      "date": "13 VII 1984",
      "place": "Człuchów",
      "lat": 53.595278,
      "lon": 17.336944,
      "people": ["cecylia-kopec-1906"]
    },
    {
      "id": "marriage-leon-maciag-cecylia-kopec-1927",
      "type": "marriage",
      "year": 1927,
      "date": "19 VII 1927",
      "place": "Wiązownica",
      "lat": 50.585833,
      "lon": 21.393056,
      "people": ["leon-maciag-1905", "cecylia-kopec-1906"]
    }, 
    {
      "id": "birth-jan-rugala-1896",
      "type": "birth",
      "year": 1896,
      "date": "1896",
      "place": "Ruda",
      "lat": 50.476111,
      "lon": 21.240556,
      "people": ["jan-rugala-1896"]
    },
    {
      "id": "death-jan-rugala-1974",
      "type": "death",
      "year": 1974,
      "date": "2 III 1974",
      "place": "Laskowo",
      "lat": 53.523889,
      "lon": 17.193333,
      "people": ["jan-rugala-1896"]
    },
    {
      "id": "birth-marianna-wylazlowska-1897",
      "type": "birth",
      "year": 1897,
      "date": "1897",
      "place": "Morawica",
      "lat": 50.745,
      "lon": 20.620278,
      "people": ["marianna-wylazlowska-1897"]
    },
    {
      "id": "death-marianna-wylazkowska-1979",
      "type": "death",
      "year": 1979,
      "date": "25 XII 1979",
      "place": "Laskowo",
      "lat": 53.523889,
      "lon": 17.193333,
      "people": ["marianna-wylazlowska-1897"]
    },
    {
      "id": "marriage-jan-rugala-marianna-wylazlowska-1927",
      "type": "marriage",
      "year": 1920,
      "date": "około 1920",
      "place": "Schermcke",
      "lat": 52.066667,
      "lon": 11.283333,
      "people": ["jan-rugala-1896", "marianna-wylazlowska-1897"]
    },
    {
      "id": "birth-jan-markiewicz-1823",
      "type": "birth",
      "year": 1823,
      "date": "8 I 1823",
      "place": "Głomsk",
      "lat": 53.435556,
      "lon": 17.164722,
      "people": ["jan-markiewicz-1823"]
    },
    {
      "id": "death-jan-markiewicz-1901",
      "type": "death",
      "year": 1901,
      "date": "20 I 1901",
      "place": "Śmiardowo Krajeńskie",
      "lat": 53.247222,
      "lon": 17.017222,
      "people": ["jan-markiewicz-1823"]
    },
    {
      "id": "death-marianna-yk-1893",
      "type": "death",
      "year": 1893,
      "date": "2 VIII 1893",
      "place": "Śmiardowo Krajeńskie",
      "lat": 53.247222,
      "lon": 17.017222,
      "people": ["marianna-yk"]
    },
    {
      "id": "marriage-jan-markiewicz-marianna-yk-1869",
      "type": "marriage",
      "year": 1869,
      "date": "31 V 1869",
      "place": "Krajenka",
      "lat": 53.296667,
      "lon": 16.990556,
      "people": ["jan-markiewicz-1823", "marianna-yk"]
    }, 
    {
      "id": "birth-antoni-mantej-1827",
      "type": "birth",
      "year": 1827,
      "date": "8 VII 1827",
      "place": "Głubczyn",
      "lat": 53.243056,
      "lon": 16.959167,
      "people": ["antoni-mantej-1827"]
    },
    {
      "id": "death-antoni-mantej-1889",
      "type": "death",
      "year": 1889,
      "date": "28 X 1889",
      "place": "Śmiardowo Krajeńskie",
      "lat": 53.247222,
      "lon": 17.017222,
      "people": ["antoni-mantej-1827"]
    },
    {
      "id": "death-rosalia-pufal-1889",
      "type": "death",
      "year": 1889,
      "date": "7 III 1889",
      "place": "Głubczyn",
      "lat": 53.243056,
      "lon": 16.959167,
      "people": ["rosalia-pufal-1828"]
    },
    {
      "id": "marriage-antoni-mantej-rosalia-pufal-1859",
      "type": "marriage",
      "year": 1859,
      "date": "28 II 1859",
      "place": "Głubczyn",
      "lat": 53.243056,
      "lon": 16.959167,
      "people": ["antoni-mantej-1827", "rosalia-pufal-1828"]
    },
    {
      "id": "birth-wawrzyn-sikora-1820",
      "type": "birth",
      "year": 1820,
      "date": "1820",
      "place": "Pęckowo",
      "lat": 52.836667,
      "lon": 16.087222,
      "people": ["wawrzyn-sikora-1820"]
    },
    {
      "id": "death-wawrzyn-sikora-1900",
      "type": "death",
      "year": 1900,
      "date": "28 II 1900",
      "place": "Miały",
      "lat": 52.806667,
      "lon": 16.171944,
      "people": ["wawrzyn-sikora-1820"]
    },
    {
      "id": "birth-rozalia-gras-1828",
      "type": "birth",
      "year": 1828,
      "date": "2 V 1828",
      "place": "Miały",
      "lat": 52.806667,
      "lon": 16.171944,
      "people": ["rozalia-gras-1828"]
    },
    {
      "id": "death-rozalia-gras-1901",
      "type": "death",
      "year": 1901,
      "date": "8 XI 1901",
      "place": "Kamionka",
      "lat": 52.8225,
      "lon": 16.574444,
      "people": ["rozalia-gras-1828"]
    },
    {
      "id": "marriage-wawrzyn-sikora-rozalia-gras-1846",
      "type": "marriage",
      "year": 1846,
      "date": "15 II 1846",
      "place": "Piłka",
      "lat": 52.790278,
      "lon": 16.055833,
      "people": ["wawrzyn-sikora-1820", "rozalia-gras-1828"]
    },
    {
      "id": "birth-jakub-rychlik-1824",
      "type": "birth",
      "year": 1824,
      "date": "1824",
      "place": "Marianowo (obecnie Marylin)",
      "lat": 52.7925,
      "lon": 16.109167,
      "people": ["jakub-rychlik-1824"]
    },
    {
      "id": "birth-marianna-michalek-1829",
      "type": "birth",
      "year": 1829,
      "date": "18 I 1829",
      "place": "Pęckowo",
      "lat": 52.836667,
      "lon": 16.087222,
      "people": ["marianna-michalek-1829"]
    },
    {
      "id": "marriage-jakub-rychlik-marianna-michalek-1852",
      "type": "marriage",
      "year": 1852,
      "date": "19 IV 1846",
      "place": "Piłka",
      "lat": 52.790278,
      "lon": 16.055833,
      "people": ["jakub-rychlik-1824", "marianna-michalek-1829"]
    },
    {
      "id": "marriage-wojciech-markiewicz-marianna-manikowska-1818",
      "type": "marriage",
      "year": 1818,
      "date": "26 I 1818",
      "place": "Zakrzewo",
      "lat": 53.410556,
      "lon": 17.1525,
      "people": ["wojciech-markiewicz-1795", "marianna-manikowska-1800"]
    },
    {
      "id": "birth-marianna-manikowska-1800",
      "type": "birth",
      "year": 1800,
      "date": "7 III 1800",
      "place": "Głomsk",
      "lat": 53.435556,
      "lon": 17.164722,
      "people": ["marianna-manikowska-1800"]
    },
    {
      "id": "death-ewa-jeska-1745",
      "type": "death",
      "year": 1833,
      "date": "17 XII 1833",
      "place": "Głomsk",
      "lat": 53.435556,
      "lon": 17.164722,
      "people": ["ewa-jeska-1745"]
    },
    {
      "id": "death-franciszek-manikowski-1844",
      "type": "death",
      "year": 1844,
      "date": "26 II 1844",
      "place": "Głomsk",
      "lat": 53.435556,
      "lon": 17.164722,
      "people": ["franciszek-manikowski-1765"]
    },
    {
      "id": "death-jadwiga-klubcowna-1830",
      "type": "death",
      "year": 1830,
      "date": "8 II 1830",
      "place": "Głomsk",
      "lat": 53.435556,
      "lon": 17.164722,
      "people": ["jadwiga-klubcowna-1770"]
    },
    {
      "id": "marriage-karol-streichan-marianna-mruk-1808",
      "type": "marriage",
      "year": 1808,
      "date": "22 VIII 1808",
      "place": "Zakrzewo",
      "lat": 53.410556,
      "lon": 17.1525,
      "people": ["karol-streichan-1781", "marianna-mruk-1788"]
    },
    {
      "id": "marriage-jakub-mantej-rozalia-metzke-1824",
      "type": "marriage",
      "year": 1824,
      "date": "22 II 1824",
      "place": "Śmiłowo",
      "lat": 53.136667,
      "lon": 16.9175,
      "people": ["jakub-mantej-1794", "rozalia-metzke-1797"]
    },
    {
      "id": "marriage-maciej-puwal-dorota-schwochert-1827",
      "type": "marriage",
      "year": 1827,
      "date": "25 XI 1827",
      "place": "Wysoka",
      "lat": 53.181389,
      "lon": 17.079722,
      "people": ["maciej-puwal-1801", "dorota-schwochert-1800"]
    },
    {
      "id": "birth-dorota-schwochert-1800",
      "type": "birth",
      "year": 1800,
      "date": "19 XII 1800",
      "place": "Mościska",
      "lat": 53.171944,
      "lon": 17.001667,
      "people": ["dorota-schwochert-1800"]
    },
    {
      "id": "death-dorota-schwochert-1831",
      "type": "death",
      "year": 1831,
      "date": "17 X 1831",
      "place": "Mościska",
      "lat": 53.171944,
      "lon": 17.001667,
      "people": ["dorota-schwochert-1800"]
    },
    {
      "id": "birth-pawel-puwal-1755",
      "type": "birth",
      "year": 1755,
      "date": "26 I 1755",
      "place": "Mościska",
      "lat": 53.171944,
      "lon": 17.001667,
      "people": ["pawel-puwal-1755"]
    },
    {
      "id": "death-pawel-puwal-1809",
      "type": "death",
      "year": 1809,
      "date": "13 I 1809",
      "place": "Mościska",
      "lat": 53.171944,
      "lon": 17.001667,
      "people": ["pawel-puwal-1755"]
    },
    {
      "id": "death-marianna-baczewska-1813",
      "type": "death",
      "year": 1813,
      "date": "20 VI 1813",
      "place": "Mościska",
      "lat": 53.171944,
      "lon": 17.001667,
      "people": ["marianna-baczewska-1761"]
    },
    {
      "id": "marriage-pawel-puwal-marianna-baczewska-1783",
      "type": "marriage",
      "year": 1783,
      "date": "10 XII 1783",
      "place": "Wysoka",
      "lat": 53.181389,
      "lon": 17.079722,
      "people": ["pawel-puwal-1755", "marianna-baczewska-1761"]
    },
    {
      "id": "death-wawrzyniec-puwal-1777",
      "type": "death",
      "year": 1777,
      "date": "9 XI 1777",
      "place": "Mościska",
      "lat": 53.171944,
      "lon": 17.001667,
      "people": ["wawrzyniec-puwal-1722"]
    },
    {
      "id": "death-anna-grzegorzewska-1789",
      "type": "death",
      "year": 1789,
      "date": "8 VI 1789",
      "place": "Mościska",
      "lat": 53.171944,
      "lon": 17.001667,
      "people": ["anna-grzegorzewska-1734"]
    },
    {
      "id": "death-kacper-schwochert-1838",
      "type": "death",
      "year": 1838,
      "date": "17 III 1838",
      "place": "Mościska",
      "lat": 53.171944,
      "lon": 17.001667,
      "people": ["kacper-schwochert-bd"]
    },
    {
      "id": "death-magdalena-zuromska-1827",
      "type": "death",
      "year": 1827,
      "date": "1 X 1827",
      "place": "Mościska",
      "lat": 53.171944,
      "lon": 17.001667,
      "people": ["magdalena-zuromska-1760"]
    },
    {
      "id": "death-pawel-groszczyk-1858",
      "type": "death",
      "year": 1858,
      "date": "1 VIII 1858",
      "place": "Krajenka",
      "lat": 53.296667,
      "lon": 16.990556,
      "people": ["pawel-groszczyk-1799"]
    },
    {
      "id": "birth-marianna-streichan-1814",
      "type": "birth",
      "year": 1814,
      "date": "4 IX 1814",
      "place": "Zakrzewo",
      "lat": 53.410556,
      "lon": 17.1525,
      "people": ["marianna-streichan-1814"]
    },
        {
      "id": "death-marianna-streichan-1905",
      "type": "death",
      "year": 1905,
      "date": "21 VII 1905",
      "place": "Krajenka",
      "lat": 53.296667,
      "lon": 16.990556,
      "people": ["marianna-streichan-1814"]
    },
    {
      "id": "death-marianna-mruk-1860",
      "type": "death",
      "year": 1860,
      "date": "3 VI 1860",
      "place": "Krajenka",
      "lat": 53.296667,
      "lon": 16.990556,
      "people": ["marianna-mruk-1788"]
    },
    {
      "id": "birth-jozef-sikora-1774",
      "type": "birth",
      "year": 1774,
      "date": "17 III 1774",
      "place": "Pęckowo",
      "lat": 52.836667,
      "lon": 16.087222,
      "people": ["jozef-sikora-1774"]
    },
    {
      "id": "birth-anna-radke-1787",
      "type": "birth",
      "year": 1787,
      "date": "1787",
      "place": "Pęckowo",
      "lat": 52.836667,
      "lon": 16.087222,
      "people": ["anna-radke-1787"]
    },
    {
      "id": "marriage-jozef-sikora-anna-radke-1811",
      "type": "marriage",
      "year": 1811,
      "date": "24 XI 1811",
      "place": "Piłka",
      "lat": 52.790278,
      "lon": 16.055833,
      "people": ["jozef-sikora-1774", "anna-radke-1787"]
    },
    {
      "id": "death-regina-helak-1809",
      "type": "death",
      "year": 1809,
      "date": "1809",
      "place": "Pęckowo",
      "lat": 52.836667,
      "lon": 16.087222,
      "people": ["regina-helak-bd"]
    },
    {
      "id": "birth-chryzostom-gras-1785",
      "type": "birth",
      "year": 1785,
      "date": "4 IX 1785",
      "place": "Miały",
      "lat": 52.806667,
      "lon": 16.171944,
      "people": ["chryzostom-gras-1785"]
    },
    {
      "id": "death-chryzostom-gras-1854",
      "type": "death",
      "year": 1854,
      "date": "20 IV 1854",
      "place": "Miały",
      "lat": 52.806667,
      "lon": 16.171944,
      "people": ["chryzostom-gras-1785"]
    },
    {
      "id": "birth-malgorzata-drab-1788",
      "type": "birth",
      "year": 1788,
      "date": "około 1788",
      "place": "Miały",
      "lat": 52.806667,
      "lon": 16.171944,
      "people": ["malgorzata-drab-1788"]
    },
    {
      "id": "death-malgorzata-drab-1860",
      "type": "death",
      "year": 1860,
      "date": "około 1860",
      "place": "Miały",
      "lat": 52.806667,
      "lon": 16.171944,
      "people": ["malgorzata-drab-1788"]
    },
    {
      "id": "marriage-chryzostom-gras-malgorzata-drab-1810",
      "type": "marriage",
      "year": 1810,
      "date": "12 VIII 1810",
      "place": "Piłka",
      "lat": 52.790278,
      "lon": 16.055833,
      "people": ["chryzostom-gras-1785", "malgorzata-drab-1788"]
    },  
    {
      "id": "birth-wojciech-gras-1740",
      "type": "birth",
      "year": 1740,
      "date": "około 1740",
      "place": "Miały",
      "lat": 52.806667,
      "lon": 16.171944,
      "people": ["wojciech-gras-1740"]
    },
    {
      "id": "death-wojciech-gras-1820",
      "type": "death",
      "year": 1820,
      "date": "25 VI 1820",
      "place": "Miały",
      "lat": 52.806667,
      "lon": 16.171944,
      "people": ["wojciech-gras-1740"]
    },
    {
      "id": "birth-malgorzata-bloch-1750",
      "type": "birth",
      "year": 1750,
      "date": "około 1750",
      "place": "Pęckowo",
      "lat": 52.836667,
      "lon": 16.087222,
      "people": ["malgorzata-bloch-1750"]
    },
    {
      "id": "death-malgorzata-bloch-1809",
      "type": "death",
      "year": 1809,
      "date": "15 III 1809",
      "place": "Miały",
      "lat": 52.806667,
      "lon": 16.171944,
      "people": ["malgorzata-bloch-1750"]
    },
    {
      "id": "birth-walenty-drab-1759",
      "type": "birth",
      "year": 1759,
      "date": "około 1759",
      "place": "Miały",
      "lat": 52.806667,
      "lon": 16.171944,
      "people": ["walenty-drab-1759"]
    },
    {
      "id": "death-walenty-drab-1829",
      "type": "death",
      "year": 1829,
      "date": "12 IV 1829",
      "place": "Miały",
      "lat": 52.806667,
      "lon": 16.171944,
      "people": ["walenty-drab-1759"]
    },
    {
      "id": "birth-marianna-steinborn-1763",
      "type": "birth",
      "year": 1763,
      "date": "17 X 1763",
      "place": "Małe Olędry (obecnie Marianowo)",
      "lat": 52.901111,
      "lon": 16.141667,
      "people": ["marianna-steinborn-1763"]
    },
    {
      "id": "death-marianna-steinborn-1819",
      "type": "death",
      "year": 1819,
      "date": "12 III 1819",
      "place": "Miały",
      "lat": 52.806667,
      "lon": 16.171944,
      "people": ["marianna-steinborn-1763"]
    },
    {
      "id": "birth-wojciech-steinborn-1719",
      "type": "birth",
      "year": 1719,
      "date": "2 VIII 1719",
      "place": "Rzecin",
      "lat": 52.768333,
      "lon": 16.2975,
      "people": ["wojciech-steinborn-1719"]
    },
    {
      "id": "death-wojciech-steinborn-1765",
      "type": "death",
      "year": 1765,
      "date": "14 VI 1765",
      "place": "Małe Olędry (obecnie Marianowo)",
      "lat": 52.901111,
      "lon": 16.141667,
      "people": ["wojciech-steinborn-1719"]
    },
    {
      "id": "birth-anna-sztuba-1722",
      "type": "birth",
      "year": 1722,
      "date": "28 IV 1722",
      "place": "Łokacz Wielki",
      "lat": 52.875278,
      "lon": 15.991667,
      "people": ["anna-sztuba-1722"]
    },
    {
      "id": "birth-wojciech-steinborn-1662",
      "type": "birth",
      "year": 1662,
      "date": "19 IV 1662",
      "place": "Rzecin",
      "lat": 52.768333,
      "lon": 16.2975,
      "people": ["wojciech-steinborn-1662"]
    },
    {
      "id": "death-anna-hintz-1747",
      "type": "death",
      "year": 1747,
      "date": "19 VIII 1747",
      "place": "Rzecin",
      "lat": 52.768333,
      "lon": 16.2975,
      "people": ["anna-hintz-bd"]
    },
    {
      "id": "marriage-wojciech-steinborn-anna-hintz-1695",
      "type": "marriage",
      "year": 1695,
      "date": "10 VII 1695",
      "place": "Wieleń",
      "lat": 52.888889,
      "lon": 16.168056,
      "people": ["wojciech-steinborn-1662", "anna-hintz-bd"]
    },  
    {
      "id": "death-pawel-steinborn-1693",
      "type": "death",
      "year": 1693,
      "date": "9 VIII 1693",
      "place": "Rzecin",
      "lat": 52.768333,
      "lon": 16.2975,
      "people": ["pawel-steinborn-bd"]
    },
    {
      "id": "death-ewa-steinbornowa-1693",
      "type": "death",
      "year": 1693,
      "date": "5 IV 1693",
      "place": "Rzecin",
      "lat": 52.768333,
      "lon": 16.2975,
      "people": ["ewa-steinbornowa-bd"]
    },
    {
      "id": "birth-jan-sztuba-1695",
      "type": "birth",
      "year": 1695,
      "date": "15 VI 1695",
      "place": "Wrzeszczyna",
      "lat": 52.876944,
      "lon": 16.239167,
      "people": ["jan-sztuba-1695"]
    },
    {
      "id": "birth-marianna-czekala-1694",
      "type": "birth",
      "year": 1694,
      "date": "16 VI 1694",
      "place": "Rosko",
      "lat": 52.874444,
      "lon": 16.316111,
      "people": ["marianna-czekala-1694"]
    },
    {
      "id": "death-marianna-czekala-1694",
      "type": "death",
      "year": 1763,
      "date": "22 X 1763",
      "place": "Rosko",
      "lat": 52.874444,
      "lon": 16.316111,
      "people": ["marianna-czekala-1694"]
    },
    {
      "id": "marriage-jan-sztuba-marianna-czekala-1721",
      "type": "marriage",
      "year": 1721,
      "date": "2 II 1721",
      "place": "Wieleń",
      "lat": 52.888889,
      "lon": 16.168056,
      "people": ["jan-sztuba-1695", "marianna-czekala-1694"]
    },  
    {
      "id": "birth-pawel-sztuba-1661",
      "type": "birth",
      "year": 1661,
      "date": "19 I 1661",
      "place": "Wrzeszczyna",
      "lat": 52.876944,
      "lon": 16.239167,
      "people": ["pawel-sztuba-1661"]
    },
    {
      "id": "death-pawel-sztuba-1722",
      "type": "death",
      "year": 1722,
      "date": "17 I 1722",
      "place": "Łokacz Wielki",
      "lat": 52.875278,
      "lon": 15.991667,
      "people": ["pawel-sztuba-1661"]
    },
    {
      "id": "birth-wojciech-stypa-1629",
      "type": "birth",
      "year": 1629,
      "date": "11 III 1629",
      "place": "Wieleń",
      "lat": 52.876944,
      "lon": 16.239167,
      "people": ["wojciech-stypa-1629"]
    },
    {
      "id": "birth-dorota-mach-1634",
      "type": "birth",
      "year": 1634,
      "date": "25 I 1634",
      "place": "Wrzeszczyna",
      "lat": 52.876944,
      "lon": 16.239167,
      "people": ["dorota-mach-1634"]
    },
    {
      "id": "marriage-wojciech-stypa-dorota-mach-1658",
      "type": "marriage",
      "year": 1658,
      "date": "28 III 1658",
      "place": "Wieleń",
      "lat": 52.888889,
      "lon": 16.168056,
      "people": ["wojciech-stypa-1629", "dorota-mach-1634"]
    },  
    {
      "id": "marriage-grzegorz-stypa-regina-wydrzyczka-1625",
      "type": "marriage",
      "year": 1625,
      "date": "7 X 1625",
      "place": "Wieleń",
      "lat": 52.888889,
      "lon": 16.168056,
      "people": ["grzegorz-stypa-bd", "regina-wydrzyczka-bd"]
    },
    {
      "id": "birth-michal-czekala-1650",
      "type": "birth",
      "year": 1650,
      "date": "20 IX 1650",
      "place": "Smrodyniak (obecnie Marylin)",
      "lat": 52.7925,
      "lon": 16.109167,
      "people": ["michal-czekala-1650"]
    },
    {
      "id": "birth-agnieszka-kaczmarzowna-1650",
      "type": "birth",
      "year": 1650,
      "date": "9 II 1650",
      "place": "Pęckowo",
      "lat": 52.836667,
      "lon": 16.087222,
      "people": ["agnieszka-kaczmarzowna-1650"]
    },
    {
      "id": "marriage-michal-czekala-agnieszka-kaczmarzowna-1676",
      "type": "marriage",
      "year": 1676,
      "date": "9 II 1676",
      "place": "Wieleń",
      "lat": 52.888889,
      "lon": 16.168056,
      "people": ["michal-czekala-1650", "agnieszka-kaczmarzowna-1650"]
    },
    {
      "id": "birth-andrzej-czekala-1624",
      "type": "birth",
      "year": 1624,
      "date": "20 IX 1624",
      "place": "Wieleń",
      "lat": 52.888889,
      "lon": 16.168056,
      "people": ["andrzej-czekala-1624"]
    },
    {
      "id": "marriage-andrzej-czekala-jadwiga-pawelkowna-1646",
      "type": "marriage",
      "year": 1646,
      "date": "4 IX 1676",
      "place": "Wieleń",
      "lat": 52.888889,
      "lon": 16.168056,
      "people": ["andrzej-czekala-1624", "jadwiga-pawelkowna-1625"]
    },
    {
      "id": "marriage-jan-czekala-ewa-zak-1622",
      "type": "marriage",
      "year": 1622,
      "date": "6 II 1622",
      "place": "Wieleń",
      "lat": 52.888889,
      "lon": 16.168056,
      "people": ["jan-czekala-bd", "ewa-zak-1600"]
    },
    {
      "id": "birth-ewa-zak-1600",
      "type": "birth",
      "year": 1600,
      "date": "18 III 1600",
      "place": "Drawsko",
      "lat": 52.853889,
      "lon": 16.029722,
      "people": ["ewa-zak-1600"]
    },
    {
      "id": "death-helena-jarys-1866",
      "type": "death",
      "year": 1866,
      "date": "18 XI 1866",
      "place": "Marianowo (obecnie Marylin)",
      "lat": 52.7925,
      "lon": 16.109167,
      "people": ["helena-jarys-1792"]
    },
    {
      "id": "marriage-jan-michalek-katarzyna-wocko-1812",
      "type": "marriage",
      "year": 1812,
      "date": "1812",
      "place": "Wieleń",
      "lat": 52.888889,
      "lon": 16.168056,
      "people": ["jan-michalek-bd", "katarzyna-wocko-bd"]
    },
    {
      "id": "death-jan-michalek-1871",
      "type": "death",
      "year": 1871,
      "date": "19 III 1871",
      "place": "Pęckowo",
      "lat": 52.836667,
      "lon": 16.087222,
      "people": ["jan-michalek-bd"]
    },
    {
      "id": "birth-eugeniusz-markiewicz-1957",
      "type": "birth",
      "year": 1957,
      "date": "10 VII 1957",
      "place": "Brodna",
      "lat": 53.1604,
      "lon": 16.945647,
      "people": ["eugeniusz-markiewicz-1957"]
    },
    {
      "id": "death-eugeniusz-markiewicz-2020",
      "type": "death",
      "year": 2020,
      "date": "28 IV 2020",
      "place": "Piła",
      "lat": 53.151389,
      "lon": 16.738333,
      "people": ["eugeniusz-markiewicz-1957"]
    },
    {
      "id": "birth-franciszek-maciag-1870",
      "type": "birth",
      "year": 1870,
      "date": "23 XI 1870",
      "place": "Wiązownica",
      "lat": 50.585833,
      "lon": 21.393056,
      "people": ["franciszek-maciag-1870"]
    },
    {
      "id": "birth-katarzyna-pisarska-1863",
      "type": "birth",
      "year": 1863,
      "date": "21 XI 1863",
      "place": "Wiązownica",
      "lat": 50.585833,
      "lon": 21.393056,
      "people": ["katarzyna-pisarska-1863"]
    },
    {
      "id": "death-katarzyna-pisarska-1926",
      "type": "death",
      "year": 1926,
      "date": "25 XII 1926",
      "place": "Wiązownica",
      "lat": 50.585833,
      "lon": 21.393056,
      "people": ["katarzyna-pisarska-1863"]
    },
    {
      "id": "marriage-franciszek-maciag-katarzyna-pisarska-1896",
      "type": "marriage",
      "year": 1896,
      "date": "9 II 1896",
      "place": "Wiązownica-Kolonia",
      "lat": 50.585833,
      "lon": 21.393056,
      "people": ["franciszek-maciag-1870", "katarzyna-pisarska-1863"]
    },
    {
      "id": "birth-walenty-maciag-1837",
      "type": "birth",
      "year": 1837,
      "date": "6 II 1837",
      "place": "Bazów",
      "lat": 50.595,
      "lon": 21.448056,
      "people": ["walenty-maciag-1837"]
    },
    {
      "id": "death-walenty-maciag-1883",
      "type": "birth",
      "year": 1883,
      "date": "3 I 1883",
      "place": "Wiązownica",
      "lat": 50.585833,
      "lon": 21.393056,
      "people": ["walenty-maciag-1837"]
    },
    {
      "id": "birth-julianna-stasiak-1844",
      "type": "birth",
      "year": 1844,
      "date": "13 I 1844",
      "place": "Wiązownica",
      "lat": 50.585833,
      "lon": 21.393056,
      "people": ["julianna-stasiak-1844"]
    },
    {
      "id": "death-julianna-stasiak-1881",
      "type": "death",
      "year": 1881,
      "date": "10 XI 1881",
      "place": "Wiązownica",
      "lat": 50.585833,
      "lon": 21.393056,
      "people": ["julianna-stasiak-1844"]
    },
    {
      "id": "marriage-walenty-maciag-julianna-stasiak-1868",
      "type": "marriage",
      "year": 1868,
      "date": "18 XI 1868",
      "place": "Wiązownica-Kolonia",
      "lat": 50.585833,
      "lon": 21.393056,
      "people": ["walenty-maciag-1837", "julianna-stasiak-1844"]
    },
    {
      "id": "birth-wojciech-maciag-1756",
      "type": "birth",
      "year": 1756,
      "date": "około 1756",
      "place": "Bazów",
      "lat": 50.595,
      "lon": 21.448056,
      "people": ["wojciech-maciag-1756"]
    },
    {
      "id": "birth-kunegunda-chochol-1763",
      "type": "birth",
      "year": 1763,
      "date": "około 1763",
      "place": "Królewice",
      "lat": 50.593056,
      "lon": 21.425833,
      "people": ["kunegunda-chochol-1763"]
    },
    {
      "id": "marriage-walenty-maciag-kunegunda-chochol-1763",
      "type": "marriage",
      "year": 1780,
      "date": "23 I 1780",
      "place": "Sulisławice",
      "lat": 50.586389,
      "lon": 21.468889,
      "people": ["wojciech-maciag-1756", "kunegunda-chochol-1763"]
    },
    {
      "id": "death-sebastian-chochol-1793",
      "type": "death",
      "year": 1793,
      "date": "10 IV 1793",
      "place": "Królewice",
      "lat": 50.593056,
      "lon": 21.425833,
      "people": ["sebastian-chochol-bd"]
    },
    {
      "id": "birth-jan-stasiak-1809",
      "type": "birth",
      "year": 1809,
      "date": "około 1809",
      "place": "Wiązownica",
      "lat": 50.585833,
      "lon": 21.393056,
      "people": ["jan-stasiak-1809"]
    },
    {
      "id": "death-jan-stasiak-1858",
      "type": "death",
      "year": 1858,
      "date": "23 I 1858",
      "place": "Wiązownica",
      "lat": 50.585833,
      "lon": 21.393056,
      "people": ["jan-stasiak-1809"]
    },
    {
      "id": "birth-katarzyna-dygula-1809",
      "type": "birth",
      "year": 1809,
      "date": "około 1809",
      "place": "Wiązownica",
      "lat": 50.585833,
      "lon": 21.393056,
      "people": ["katarzyna-dygula-1809"]
    },
    {
      "id": "death-katarzyna-dygula-1858",
      "type": "death",
      "year": 1858,
      "date": "21 I 1858",
      "place": "Wiązownica",
      "lat": 50.585833,
      "lon": 21.393056,
      "people": ["katarzyna-dygula-1809"]
    },
    {
      "id": "birth-antoni-dygula-1758",
      "type": "birth",
      "year": 1758,
      "date": "około 1758",
      "place": "Wiązownica",
      "lat": 50.585833,
      "lon": 21.393056,
      "people": ["antoni-dygula-1758"]
    },
    {
      "id": "death-antoni-dygula-1828",
      "type": "death",
      "year": 1828,
      "date": "18 VI 1828",
      "place": "Wiązownica",
      "lat": 50.585833,
      "lon": 21.393056,
      "people": ["antoni-dygula-1758"]
    },
    {
      "id": "birth-jan-pisarski-1812",
      "type": "birth",
      "year": 1812,
      "date": "około 1812",
      "place": "Wiązownica",
      "lat": 50.585833,
      "lon": 21.393056,
      "people": ["jan-pisarski-1812"]
    },
    {
      "id": "death-jan-pisarski-1873",
      "type": "death",
      "year": 1873,
      "date": "13 XI 1873",
      "place": "Wiązownica",
      "lat": 50.585833,
      "lon": 21.393056,
      "people": ["jan-pisarski-1812"]
    },
    {
      "id": "birth-katarzyna-krepa-1832",
      "type": "birth",
      "year": 1832,
      "date": "20 XI 1832",
      "place": "Wiązownica",
      "lat": 50.585833,
      "lon": 21.393056,
      "people": ["katarzyna-krepa-1832"]
    },
    {
      "id": "death-katarzyna-krepa-1903",
      "type": "death",
      "year": 1903,
      "date": "26 XII 1903",
      "place": "Wiązownica",
      "lat": 50.585833,
      "lon": 21.393056,
      "people": ["katarzyna-krepa-1832"]
    },
    {
      "id": "marriage-jan-pisarski-katarzyna-krepa-1861",
      "type": "marriage",
      "year": 1861,
      "date": "15 VII 1861",
      "place": "Wiązownica-Kolonia",
      "lat": 50.585833,
      "lon": 21.393056,
      "people": ["jan-pisarski-1812", "katarzyna-krepa-1832"]
    },
    {
      "id": "death-maciej-pisarski-1830",
      "type": "death",
      "year": 1830,
      "date": "25 I 1830",
      "place": "Wiązownica",
      "lat": 50.585833,
      "lon": 21.393056,
      "people": ["maciej-pisarski-1785"]
    },
    {
      "id": "death-anna-kamienska-1840",
      "type": "death",
      "year": 1840,
      "date": "7 III 1840",
      "place": "Wiązownica",
      "lat": 50.585833,
      "lon": 21.393056,
      "people": ["anna-kamienska-1780"]
    },
    {
      "id": "death-jan-krepa-1845",
      "type": "death",
      "year": 1845,
      "date": "16 IV 1845",
      "place": "Wiązownica",
      "lat": 50.585833,
      "lon": 21.393056,
      "people": ["jan-krepa-1791"]
    },
    {
      "id": "birth-teresa-kedziorska-1812",
      "type": "birth",
      "year": 1812,
      "date": "14 IX 1812",
      "place": "Wiązownica",
      "lat": 50.585833,
      "lon": 21.393056,
      "people": ["teresa-kedziorska-1812"]
    },
    {
      "id": "death-teresa-kedziorska-1876",
      "type": "death",
      "year": 1876,
      "date": "29 XI 1876",
      "place": "Wiązownica",
      "lat": 50.585833,
      "lon": 21.393056,
      "people": ["teresa-kedziorska-1812"]
    },
    {
      "id": "birth-szymon-kedziorski-1782",
      "type": "birth",
      "year": 1782,
      "date": "około 1782",
      "place": "Wiązownica",
      "lat": 50.585833,
      "lon": 21.393056,
      "people": ["szymon-kedziorski-1782"]
    },
    {
      "id": "death-szymon-kedziorski-1834",
      "type": "death",
      "year": 1834,
      "date": "2 I 1834",
      "place": "Wiązownica",
      "lat": 50.585833,
      "lon": 21.393056,
      "people": ["szymon-kedziorski-1782"]
    },
    {
      "id": "birth-malgorzata-kos-1784",
      "type": "birth",
      "year": 1784,
      "date": "około 1784",
      "place": "Wiązownica",
      "lat": 50.585833,
      "lon": 21.393056,
      "people": ["malgorzata-kos-1784"]
    },
    {
      "id": "death-malgorzata-kos-1814",
      "type": "death",
      "year": 1814,
      "date": "9 X 1814",
      "place": "Wiązownica",
      "lat": 50.585833,
      "lon": 21.393056,
      "people": ["malgorzata-kos-1784"]
    },
    {
      "id": "marriage-szymon-kedziorski-malgorzata-kos-1807",
      "type": "marriage",
      "year": 1807,
      "date": "17 XI 1807",
      "place": "Wiązownica-Kolonia",
      "lat": 50.585833,
      "lon": 21.393056,
      "people": ["szymon-kedziorski-1782", "malgorzata-kos-1784"]
    },
    {
      "id": "death-teresa-kedziorska-1815",
      "type": "death",
      "year": 1815,
      "date": "11 II 1815",
      "place": "Wiązownica",
      "lat": 50.585833,
      "lon": 21.393056,
      "people": ["teresa-kedziorska-bd"]
    },
    {
      "id": "death-bartlomiej-kos-1816",
      "type": "death",
      "year": 1816,
      "date": "13 IV 1816",
      "place": "Wiązownica",
      "lat": 50.585833,
      "lon": 21.393056,
      "people": ["bartlomiej-kos-1755"]
    },
    {
      "id": "birth-julian-kopciowski-1872",
      "type": "birth",
      "year": 1872,
      "date": "31 XII 1872",
      "place": "Wiązownica",
      "lat": 50.585833,
      "lon": 21.393056,
      "people": ["julian-kopciowski-1872"]
    },
    {
      "id": "death-julian-kopciowski-1918",
      "type": "death",
      "year": 1918,
      "date": "16 IV 1918",
      "place": "Staszów",
      "lat": 50.565,
      "lon": 21.166944,
      "people": ["julian-kopciowski-1872"]
    },
    {
      "id": "birth-marianna-kwiecien-1869",
      "type": "birth",
      "year": 1869,
      "date": "29 XII 1869",
      "place": "Wiązownica",
      "lat": 50.585833,
      "lon": 21.393056,
      "people": ["marianna-kwiecien-1869"]
    },
    {
      "id": "death-marianna-kwiecien-1934",
      "type": "death",
      "year": 1934,
      "date": "20 XII 1934",
      "place": "Wiązownica",
      "lat": 50.585833,
      "lon": 21.393056,
      "people": ["marianna-kwiecien-1869"]
    },
    {
      "id": "marriage-julian-kopciowski-marianna-kwiecien-1895",
      "type": "marriage",
      "year": 1895,
      "date": "20 II 1895",
      "place": "Wiązownica",
      "lat": 50.585833,
      "lon": 21.393056,
      "people": ["julian-kopciowski-1872", "marianna-kwiecien-1869"]
    },
    {
      "id": "birth-andrzej-kopciowski-1851",
      "type": "birth",
      "year": 1851,
      "date": "29 XI 1851",
      "place": "Zdzieci",
      "lat": 50.421111,
      "lon": 21.223611,
      "people": ["andrzej-kopciowski-1851"]
    },
    {
      "id": "death-andrzej-kopciowski-1931",
      "type": "death",
      "year": 1931,
      "date": "17 XII 1931",
      "place": "Wiązownica",
      "lat": 50.585833,
      "lon": 21.393056,
      "people": ["andrzej-kopciowski-1851"]
    },
    {
      "id": "birth-julianna-salwicka-1837",
      "type": "birth",
      "year": 1837,
      "date": "7 VI 1837",
      "place": "Wiązownica",
      "lat": 50.585833,
      "lon": 21.393056,
      "people": ["julianna-salwicka-1837"]
    },
    {
      "id": "death-julianna-salwicka-1907",
      "type": "death",
      "year": 1907,
      "date": "24 II 1907",
      "place": "Wiązownica",
      "lat": 50.585833,
      "lon": 21.393056,
      "people": ["julianna-salwicka-1837"]
    },
    {
      "id": "marriage-andrzej-kopciowski-julianna-salwicka-1872",
      "type": "marriage",
      "year": 1872,
      "date": "10 VII 1872",
      "place": "Wiązownica",
      "lat": 50.585833,
      "lon": 21.393056,
      "people": ["andrzej-kopciowski-1851", "julianna-salwicka-1837"]
    },
    {
      "id": "birth-piotr-kopciowski-1824",
      "type": "birth",
      "year": 1824,
      "date": "25 VI 1824",
      "place": "Osiek",
      "lat": 50.520556,
      "lon": 21.442778,
      "people": ["piotr-kopciowski-1824"]
    },
    {
      "id": "death-piotr-kopciowski-1891",
      "type": "death",
      "year": 1891,
      "date": "11 IV 1891",
      "place": "Osiek",
      "lat": 50.520556,
      "lon": 21.442778,
      "people": ["piotr-kopciowski-1824"]
    },
    {
      "id": "birth-rozalia-lipiec-1829",
      "type": "birth",
      "year": 1829,
      "date": "17 VIII 1829",
      "place": "Strzegom",
      "lat": 50.513889,
      "lon": 21.323889,
      "people": ["rozalia-lipiec-1829"]
    },
    {
      "id": "death-rozalia-lipiec-1882",
      "type": "death",
      "year": 1882,
      "date": "20 XII 1882",
      "place": "Osiek",
      "lat": 50.520556,
      "lon": 21.442778,
      "people": ["rozalia-lipiec-1829"]
    },
    {
      "id": "marriage-piotr-kopciowski-rozalia-lipiec-1847",
      "type": "marriage",
      "year": 1847,
      "date": "17 XI 1847",
      "place": "Strzegom",
      "lat": 50.513889,
      "lon": 21.323889,
      "people": ["piotr-kopciowski-1824", "rozalia-lipiec-1829"]
    }, 
    {
      "id": "death-wojciech-kopciowski-1862",
      "type": "death",
      "year": 1862,
      "date": "11 IV 1862",
      "place": "Osiek",
      "lat": 50.520556,
      "lon": 21.442778,
      "people": ["wojciech-kopciowski-1792"]
    },
    {
      "id": "death-julianna-kotlarska-1849",
      "type": "death",
      "year": 1849,
      "date": "2 I 1849",
      "place": "Osiek",
      "lat": 50.520556,
      "lon": 21.442778,
      "people": ["julianna-kotlarska-1801"]
    },
    {
      "id": "death-mikolaj-kopciowski-1830",
      "type": "death",
      "year": 1830,
      "date": "16 II 1830",
      "place": "Osiek",
      "lat": 50.520556,
      "lon": 21.442778,
      "people": ["mikolaj-kopciowski-1770"]
    },
    {
      "id": "death-franciszka-wegrzynowska-1850",
      "type": "death",
      "year": 1850,
      "date": "17 X 1850",
      "place": "Osiek",
      "lat": 50.520556,
      "lon": 21.442778,
      "people": ["franciszka-wegrzynowska-1770"]
    },
    {
      "id": "death-jan-wegrzynowski-1812",
      "type": "death",
      "year": 1812,
      "date": "9 IV 1812",
      "place": "Osiek",
      "lat": 50.520556,
      "lon": 21.442778,
      "people": ["jan-wegrzynowski-1754"]
    },
    {
      "id": "death-agnieszka-wegrzynowska-1824",
      "type": "death",
      "year": 1824,
      "date": "12 XI 1824",
      "place": "Osiek",
      "lat": 50.520556,
      "lon": 21.442778,
      "people": ["agnieszka-wegrzynowska-1754"]
    },
    {
      "id": "death-piotr-kotlarski-1815",
      "type": "death",
      "year": 1815,
      "date": "15 V 1815",
      "place": "Osiek",
      "lat": 50.520556,
      "lon": 21.442778,
      "people": ["piotr-kotlarski-1757"]
    },
    {
      "id": "death-marianna-kedziorska-1830",
      "type": "death",
      "year": 1830,
      "date": "21 I 1830",
      "place": "Osiek",
      "lat": 50.520556,
      "lon": 21.442778,
      "people": ["marianna-kedziorska-1760"]
    },
    {
      "id": "birth-walenty-lipiec-1800",
      "type": "birth",
      "year": 1800,
      "date": "16 II 1800",
      "place": "Strzegom",
      "lat": 50.513889,
      "lon": 21.323889,
      "people": ["walenty-lipiec-1800"]
    },
    {
      "id": "death-walenty-lipiec-1871",
      "type": "death",
      "year": 1871,
      "date": "17 II 1871",
      "place": "Strzegom",
      "lat": 50.513889,
      "lon": 21.323889,
      "people": ["walenty-lipiec-1800"]
    },
    {
      "id": "birth-marianna-szczepanowska-1800",
      "type": "birth",
      "year": 1800,
      "date": "15 V 1800",
      "place": "Strzegom",
      "lat": 50.513889,
      "lon": 21.323889,
      "people": ["marianna-szczepanowska-1800"]
    },  
    {
      "id": "death-marianna-szczepanowska-1867",
      "type": "death",
      "year": 1867,
      "date": "1 IV 1867",
      "place": "Strzegom",
      "lat": 50.513889,
      "lon": 21.323889,
      "people": ["marianna-szczepanowska-1800"]
    },  
    {
      "id": "marriage-walenty-lipiec-marianna-szczepanowska-1822",
      "type": "marriage",
      "year": 1822,
      "date": "28 X 1822",
      "place": "Strzegom",
      "lat": 50.513889,
      "lon": 21.323889,
      "people": ["piotr-kopciowski-1824", "marianna-szczepanowska-1800"]
    }, 
    {
      "id": "death-sebastian-szczepanowski-1827",
      "type": "death",
      "year": 1827,
      "date": "16 II 1827",
      "place": "Strzegom",
      "lat": 50.513889,
      "lon": 21.323889,
      "people": ["sebastian-szczepanowski-bd"]
    },  
    {
      "id": "death-salomea-szczepanowska-1814",
      "type": "death",
      "year": 1814,
      "date": "10 V 1814",
      "place": "Strzegom",
      "lat": 50.513889,
      "lon": 21.323889,
      "people": ["salomea-szczepanowska-1774"]
    },  
    {
      "id": "birth-jan-salwicki-1800",
      "type": "birth",
      "year": 1800,
      "date": "około 1800",
      "place": "Wiązownica",
      "lat": 50.585833,
      "lon": 21.393056,
      "people": ["jan-salwicki-1800"]
    },
    {
      "id": "death-jan-salwicki-1854",
      "type": "death",
      "year": 1854,
      "date": "6 V 1854",
      "place": "Wiązownica",
      "lat": 50.585833,
      "lon": 21.393056,
      "people": ["jan-salwicki-1800"]
    },
    {
      "id": "birth-jozefa-bilska-1814",
      "type": "birth",
      "year": 1814,
      "date": "około 1814",
      "place": "Nowa Wieś",
      "lat": 50.651944,
      "lon": 21.410556,
      "people": ["jozefa-bilska-1814"]
    },
    {
      "id": "death-jozefa-bilska-1887",
      "type": "death",
      "year": 1887,
      "date": "9 I 1887",
      "place": "Wiązownica",
      "lat": 50.585833,
      "lon": 21.393056,
      "people": ["jozefa-bilska-1814"]
    },
    {
      "id": "marriage-jan-salwicki-jozefa-bilska-1832",
      "type": "marriage",
      "year": 1832,
      "date": "4 VI 1832",
      "place": "Goźlice",
      "lat": 50.696389,
      "lon": 21.476389,
      "people": ["jan-salwicki-1800", "jozefa-bilska-1814"]
    }, 
    {
      "id": "death-marianna-salwicka-1830",
      "type": "death",
      "year": 1830,
      "date": "8 XII 1830",
      "place": "Szymanowice Dolne",
      "lat": 50.633611,
      "lon": 21.435556,
      "people": ["marianna-salwicka-1765"]
    },
    {
      "id": "birth-wincenty-kwiecien-1840",
      "type": "birth",
      "year": 1840,
      "date": "16 XII 1840",
      "place": "Bukowa",
      "lat": 50.578889,
      "lon": 21.421389,
      "people": ["wincenty-kwiecien-1840"]
    },
    {
      "id": "death-wincenty-kwiecien-1873",
      "type": "death",
      "year": 1873,
      "date": "27 XII 1873",
      "place": "Wiązownica",
      "lat": 50.585833,
      "lon": 21.393056,
      "people": ["wincenty-kwiecien-1840"]
    },
    {
      "id": "birth-katarzyna-jonca-1849",
      "type": "birth",
      "year": 1849,
      "date": "18 XI 1849",
      "place": "Wiązownica",
      "lat": 50.585833,
      "lon": 21.393056,
      "people": ["katarzyna-jonca-1849"]
    },
    {
      "id": "death-katarzyna-jonca-1912",
      "type": "death",
      "year": 1912,
      "date": "14 V 1912",
      "place": "Wiązownica",
      "lat": 50.585833,
      "lon": 21.393056,
      "people": ["katarzyna-jonca-1849"]
    },
    {
      "id": "death-jacenty-kwiecien-1877",
      "type": "death",
      "year": 1877,
      "date": "29 X 1877",
      "place": "Bukowa",
      "lat": 50.578889,
      "lon": 21.421389,
      "people": ["jacenty-kwiecien-1805"]
    },
    {
      "id": "birth-agata-stawiarz-1806",
      "type": "birth",
      "year": 1806,
      "date": "2 II 1806",
      "place": "Bukowa",
      "lat": 50.578889,
      "lon": 21.421389,
      "people": ["agata-stawiarz-1806"]
    },
    {
      "id": "death-agata-stawiarz-1875",
      "type": "death",
      "year": 1875,
      "date": "23 I 1875",
      "place": "Bukowa",
      "lat": 50.578889,
      "lon": 21.421389,
      "people": ["agata-stawiarz-1806"]
    }
  ]
}
