{
  "people": [
    {
      "id": "antoni-markiewicz-1909",
      "givenName": "Antoni",
      "surname": "Markiewicz",
      "relation": "dziadek",
      "line": "Markiewicz"
    },
    {
      "id": "bronislawa-sikora-1913",
      "givenName": "Bronisława",
      "surname": "Sikora",
      "relation": "babcia",
      "line": "Sikora"
    },
    {
      "id": "marian-maciag-1937",
      "givenName": "Marian",
      "surname": "Maciąg",
      "relation": "dziadek",
      "line": "Maciąg"
    },
    {
      "id": "marianna-rugala-1938",
      "givenName": "Marianna",
      "surname": "Rugała",
      "relation": "babcia",
      "line": "Rugała"
    },
    {
      "id": "jan-markiewicz-1870",
      "givenName": "Jan",
      "surname": "Markiewicz",
      "relation": "pradziadek",
      "line": "Markiewicz"
    },
    {
      "id": "michalina-manthey-1870",
      "givenName": "Michalina",
      "surname": "Manthey",
      "relation": "prababcia",
      "line": "Markiewicz"
    },
    {
      "id": "piotr-sikora-1865",
      "givenName": "Piotr",
      "surname": "Sikora",
      "relation": "pradziadek",
      "line": "Sikora"
    },
    {
      "id": "michalina-rychlik-1872",
      "givenName": "Michalina",
      "surname": "Rychlik",
      "relation": "prababcia",
      "line": "Sikora"
    },
    {
      "id": "leon-maciag-1905",
      "givenName": "Leon",
      "surname": "Maciąg",
      "relation": "pradziadek",
      "line": "Maciąg"
    },
    {
      "id": "cecylia-kopec-1906",
      "givenName": "Cecylia",
      "surname": "Kopeć",
      "relation": "prababcia",
      "line": "Maciąg"
    },
    {
      "id": "jan-rugala-1896",
      "givenName": "Jan",
      "surname": "Rugała",
      "relation": "pradziadek",
      "line": "Rugała"
    },
    {
      "id": "marianna-wylazlowska-1897",
      "givenName": "Marianna",
      "surname": "Wylazłowska",
      "relation": "prababcia",
      "line": "Rugała"
    }
  ],
  "events": [
    {
      "id": "birth-antoni-markiewicz-1909",
      "type": "birth",
      "year": 1909,
      "date": "23 II 1909",
      "place": "Krajenka",
      "lat": 53.296667,
      "lon": 16.990556,
      "people": ["antoni-markiewicz-1909"],
      "note": "Miejsce urodzenia",
      "source": "do uzupełnienia"
    },
    {
      "id": "death-antoni-markiewicz-1909",
      "type": "death",
      "year": 1993,
      "date": "25 V 1993",
      "place": "Brodna",
      "lat": 53.168333,
      "lon": 16.926111,
      "people": ["antoni-markiewicz-1909"],
      "note": "Miejsce zgonu",
      "source": "do uzupełnienia"
    },
    {
      "id": "birth-bronislawa-sikora-1913",
      "type": "birth",
      "year": 1913,
      "date": "8 IX 1913",
      "place": "Ludomy",
      "lat": 52.756111,
      "lon": 16.819444,
      "people": ["bronislawa-sikora-1913"],
      "note": "Miejsce urodzenia",
      "source": "do uzupełnienia"
    },
    {
      "id": "death-bronislawa-sikora-1913",
      "type": "death",
      "year": 1999,
      "date": "23 XI 1999",
      "place": "Kaczory",
      "lat": 53.101944,
      "lon": 16.884167,
      "people": ["bronislawa-sikora-1913"],
      "note": "Miejsce zgonu",
      "source": "do uzupełnienia"
    },
    {
      "id": "marriage-antoni-markiewicz-bronislawa-sikora-1936",
      "type": "marriage",
      "year": 1936,
      "date": "18 II 1936",
      "place": "Śmiłowo",
      "lat": 53.136667,
      "lon": 16.9175,
      "people": ["antoni-markiewicz-1909", "bronislawa-sikora-1913"],
      "note": "Miejsce ślubu",
      "source": "akt małżeństwa nr ..."
    },
    {
      "id": "birth-marian-maciag-1937",
      "type": "birth",
      "year": 1937,
      "date": "1937",
      "place": "Wiązownica",
      "lat": 50.585833,
      "lon": 21.393056,
      "people": ["marian-maciag-1937"],
      "note": "Miejsce urodzenia",
      "source": "do uzupełnienia"
    },
    {
      "id": "death-marian-maciag-1997",
      "type": "death",
      "year": 1997,
      "date": "24 V 1997",
      "place": "Laskowo",
      "lat": 53.523889,
      "lon": 17.193333,
      "people": ["marian-maciag-1937"],
      "note": "Miejsce zgonu",
      "source": "do uzupełnienia"
    },
    {
      "id": "birth-marianna-rugala-1938",
      "type": "birth",
      "year": 1938,
      "date": "1938",
      "place": "Ruda",
      "lat": 50.476111,
      "lon": 21.240556,
      "people": ["marianna-rugala-1938"],
      "note": "Miejsce urodzenia",
      "source": "do uzupełnienia"
    },
    {
      "id": "marriage-marian-maciag-marianna-rugala-1936",
      "type": "marriage",
      "year": 1961,
      "date": "IV 1961",
      "place": "Debrzno",
      "lat": 53.538333,
      "lon": 17.235278,
      "people": ["marian-maciag-1937", "marianna-rugala-1938"],
      "note": "Miejsce ślubu",
      "source": "akt małżeństwa nr ..."
    }, 
    {
      "id": "birth-jan-markiewicz-1870",
      "type": "birth",
      "year": 1870,
      "date": "1870",
      "place": "Głomsk",
      "lat": 53.435556,
      "lon": 17.164722,
      "people": ["jan-markiewicz-1870"],
      "note": "Miejsce urodzenia",
      "source": "do uzupełnienia"
    },
    {
      "id": "death-jan-markiewicz-1956",
      "type": "death",
      "year": 1956,
      "date": "23 X 1956",
      "place": "Mościska",
      "lat": 53.171944,
      "lon": 17.001667,
      "people": ["jan-markiewicz-1870"],
      "note": "Miejsce zgonu",
      "source": "do uzupełnienia"
    },
    {
      "id": "birth-michalina-manthey-1870",
      "type": "birth",
      "year": 1870,
      "date": "1870",
      "place": "Stare",
      "lat": 53.219444,
      "lon": 16.998056,
      "people": ["michalina-manthey-1870"],
      "note": "Miejsce urodzenia",
      "source": "do uzupełnienia"
    },
    {
      "id": "death-michalina-manthey-1941",
      "type": "death",
      "year": 1941,
      "date": "21 XII 1941",
      "place": "Mościska",
      "lat": 53.171944,
      "lon": 17.001667,
      "people": ["michalina-manthey-1870"],
      "note": "Miejsce zgonu",
      "source": "do uzupełnienia"
    },
    {
      "id": "marriage-jan-markiewicz-michalina-manthey-1893",
      "type": "marriage",
      "year": 1893,
      "date": "8 I 1893",
      "place": "Piłka",
      "lat": 53.243056,
      "lon": 16.959167,
      "people": ["jan-markiewicz-1870", "michalina-manthey-1870"],
      "note": "Miejsce ślubu",
      "source": "akt małżeństwa nr ..."
    }, 
    {
      "id": "birth-piotr-sikora-1865",
      "type": "birth",
      "year": 1865,
      "date": "1865",
      "place": "Miały",
      "lat": 52.806667,
      "lon": 16.171944,
      "people": ["piotr-sikora-1865"],
      "note": "Miejsce urodzenia",
      "source": "do uzupełnienia"
    },
    {
      "id": "death-piotr-sikora-1947",
      "type": "death",
      "year": 1947,
      "date": "31 I 1947",
      "place": "Brodna",
      "lat": 53.168333,
      "lon": 16.926111,
      "people": ["piotr-sikora-1865"],
      "note": "Miejsce zgonu",
      "source": "do uzupełnienia"
    },
    {
      "id": "birth-michalina-rychlik-1872",
      "type": "birth",
      "year": 1872,
      "date": "1872",
      "place": "Marianowo",
      "lat": 52.901111,
      "lon": 16.141667,
      "people": ["michalina-rychlik-1872"],
      "note": "Miejsce urodzenia",
      "source": "do uzupełnienia"
    },
    {
      "id": "death-michalina-rychlik-1955",
      "type": "death",
      "year": 1955,
      "date": "25 XII 1955",
      "place": "Brodna",
      "lat": 53.168333,
      "lon": 16.926111,
      "people": ["michalina-rychlik-1872"],
      "note": "Miejsce zgonu",
      "source": "do uzupełnienia"
    },
    {
      "id": "marriage-piotr-sikora-michalina-rychlik-1890",
      "type": "marriage",
      "year": 1890,
      "date": "1890",
      "place": "Piłka",
      "lat": 52.790278,
      "lon": 16.055833,
      "people": ["piotr-sikora-1865", "michalina-rychlik-1872"],
      "note": "Miejsce ślubu",
      "source": "akt małżeństwa nr ..."
    }, 
    {
      "id": "birth-leon-maciag-1905",
      "type": "birth",
      "year": 1905,
      "date": "1905",
      "place": "Wiązownica",
      "lat": 50.585833,
      "lon": 21.393056,
      "people": ["leon-maciag-1905"],
      "note": "Miejsce urodzenia",
      "source": "do uzupełnienia"
    },
    {
      "id": "death-leon-maciag-1975",
      "type": "death",
      "year": 1975,
      "date": "9 VI 1975",
      "place": "Człuchów",
      "lat": 53.667222,
      "lon": 17.358889,
      "people": ["leon-maciag-1905"],
      "note": "Miejsce zgonu",
      "source": "do uzupełnienia"
    },
    {
      "id": "birth-cecylia-kopec-1906",
      "type": "birth",
      "year": 1906,
      "date": "1906",
      "place": "Wiązownica",
      "lat": 50.585833,
      "lon": 21.393056,
      "people": ["cecylia-kopec-1906"],
      "note": "Miejsce urodzenia",
      "source": "do uzupełnienia"
    },
    {
      "id": "death-cecylia-kopec-1984",
      "type": "death",
      "year": 1984,
      "date": "13 VII 1984",
      "place": "Człuchów",
      "lat": 53.595278,
      "lon": 17.336944,
      "people": ["cecylia-kopec-1906"],
      "note": "Miejsce zgonu",
      "source": "do uzupełnienia"
    },
    {
      "id": "marriage-leon-maciag-cecylia-kopec-1927",
      "type": "marriage",
      "year": 1927,
      "date": "19 VII 1927",
      "place": "Wiązownica",
      "lat": 50.585833,
      "lon": 21.393056,
      "people": ["leon-maciag-1905", "cecylia-kopec-1906"],
      "note": "Miejsce ślubu",
      "source": "akt małżeństwa nr ..."
    }, 
    {
      "id": "birth-jan-rugala-1896",
      "type": "birth",
      "year": 1896,
      "date": "1896",
      "place": "Ruda",
      "lat": 50.476111,
      "lon": 21.240556,
      "people": ["jan-rugala-1896"],
      "note": "Miejsce urodzenia",
      "source": "do uzupełnienia"
    },
    {
      "id": "death-jan-rugala-1974",
      "type": "death",
      "year": 1974,
      "date": "2 III 1974",
      "place": "Laskowo",
      "lat": 53.523889,
      "lon": 17.193333,
      "people": ["jan-rugala-1896"],
      "note": "Miejsce zgonu",
      "source": "do uzupełnienia"
    },
    {
      "id": "birth-marianna-wylazlowska-1897",
      "type": "birth",
      "year": 1897,
      "date": "1897",
      "place": "Morawica",
      "lat": 50.745,
      "lon": 20.620278,
      "people": ["marianna-wylazlowska-1897"],
      "note": "Miejsce urodzenia",
      "source": "do uzupełnienia"
    },
    {
      "id": "death-marianna-wylazkowska-1979",
      "type": "death",
      "year": 1979,
      "date": "25 XII 1979",
      "place": "Laskowo",
      "lat": 53.523889,
      "lon": 17.193333,
      "people": ["marianna-wylazlowska-1897"],
      "note": "Miejsce zgonu",
      "source": "do uzupełnienia"
    },
    {
      "id": "marriage-jan-rugala-marianna-wylazlowska-1927",
      "type": "marriage",
      "year": 1920,
      "date": "około 1920",
      "place": "Schermcke",
      "lat": 52.066667,
      "lon": 11.283333,
      "people": ["jan-rugala-1896", "marianna-wylazlowska-1897"],
      "note": "Prawdopodobne miejsce ślubu",
      "source": "akt małżeństwa nr ..."
    }
  ]
}
